b'{"latitude": 42.64991, "geonameid": 2986043, "country_code": "AD", "longitude": 1.53335, "name": "Pic de Font Blanca", "population": 0}'
b'{"latitude": 42.58765, "geonameid": 2994701, "country_code": "AD", "longitude": 1.74028, "name": "Roc M\xc3\xa9l\xc3\xa9", "population": 0}'
b'{"latitude": 42.61203, "geonameid": 3007683, "country_code": "AD", "longitude": 1.47364, "name": "Pic des Langounelles", "population": 0}'
b'{"latitude": 42.52535, "geonameid": 3017832, "country_code": "AD", "longitude": 1.73343, "name": "Pic de les Abelletes", "population": 0}'
b'{"latitude": 42.52915, "geonameid": 3017833, "country_code": "AD", "longitude": 1.73362, "name": "Estany de les Abelletes", "population": 0}'
b'{"latitude": 42.62568, "geonameid": 3023203, "country_code": "AD", "longitude": 1.61823, "name": "Port Vieux de la Coume d\xe2\x80\x99Ose", "population": 0}'
b'{"latitude": 42.6, "geonameid": 3029315, "country_code": "AD", "longitude": 1.73333, "name": "Port de la Cabanette", "population": 0}'
b'{"latitude": 42.60172, "geonameid": 3034945, "country_code": "AD", "longitude": 1.45562, "name": "Port Dret", "population": 0}'
b'{"latitude": 42.50692, "geonameid": 3038814, "country_code": "AD", "longitude": 1.47569, "name": "Costa de Xurius", "population": 0}'
b'{"latitude": 42.55003, "geonameid": 3038815, "country_code": "AD", "longitude": 1.44986, "name": "Font de la Xona", "population": 0}'
b'{"latitude": 42.55327, "geonameid": 3038816, "country_code": "AD", "longitude": 1.48736, "name": "Xixerella", "population": 0}'
b'{"latitude": 42.57165, "geonameid": 3038818, "country_code": "AD", "longitude": 1.67554, "name": "Riu Xic", "population": 0}'
b'{"latitude": 42.49766, "geonameid": 3038819, "country_code": "AD", "longitude": 1.57597, "name": "Pas del Xic", "population": 0}'
b'{"latitude": 42.56068, "geonameid": 3038820, "country_code": "AD", "longitude": 1.4898, "name": "Roc del Xeig", "population": 0}'
b'{"latitude": 42.57512, "geonameid": 3038821, "country_code": "AD", "longitude": 1.49009, "name": "Collada del Xeig", "population": 0}'
b'{"latitude": 42.49829, "geonameid": 3038822, "country_code": "AD", "longitude": 1.56428, "name": "Fonts Vives", "population": 0}'
b'{"latitude": 42.49922, "geonameid": 3038823, "country_code": "AD", "longitude": 1.48118, "name": "Roc de Vista", "population": 0}'
b'{"latitude": 42.47935, "geonameid": 3038824, "country_code": "AD", "longitude": 1.44621, "name": "Obaga de Vista", "population": 0}'
b'{"latitude": 42.47611, "geonameid": 3038825, "country_code": "AD", "longitude": 1.60578, "name": "Coll de Vista", "population": 0}'
b'{"latitude": 42.47552, "geonameid": 3038826, "country_code": "AD", "longitude": 1.44173, "name": "Coll de Vista", "population": 0}'
b'{"latitude": 42.57488, "geonameid": 3038827, "country_code": "AD", "longitude": 1.61616, "name": "Visanseny", "population": 0}'
b'{"latitude": 42.52776, "geonameid": 3038828, "country_code": "AD", "longitude": 1.56446, "name": "Roc de la Vinya", "population": 0}'
b'{"latitude": 42.52232, "geonameid": 3038829, "country_code": "AD", "longitude": 1.52319, "name": "Canal de la Vinya", "population": 0}'
b'{"latitude": 42.60135, "geonameid": 3038830, "country_code": "AD", "longitude": 1.5434, "name": "Bosc de Villar", "population": 0}'
b'{"latitude": 42.53414, "geonameid": 3038831, "country_code": "AD", "longitude": 1.56678, "name": "Torrent de Vila", "population": 0}'
b'{"latitude": 42.53176, "geonameid": 3038832, "country_code": "AD", "longitude": 1.56654, "name": "Vila", "population": 0}'
b'{"latitude": 42.47669, "geonameid": 3038833, "country_code": "AD", "longitude": 1.4829, "name": "Basers de Vicen\xc3\xa7", "population": 0}'
b'{"latitude": 42.59001, "geonameid": 3038834, "country_code": "AD", "longitude": 1.65996, "name": "Pla de Vi\xc3\xa0s", "population": 0}'
b'{"latitude": 42.56372, "geonameid": 3038835, "country_code": "AD", "longitude": 1.50503, "name": "Vial del Cardaire", "population": 0}'
b'{"latitude": 42.52342, "geonameid": 3038836, "country_code": "AD", "longitude": 1.47698, "name": "Font del Vi", "population": 0}'
b'{"latitude": 42.5557, "geonameid": 3038837, "country_code": "AD", "longitude": 1.55859, "name": "Font Verda", "population": 0}'
b'{"latitude": 42.48297, "geonameid": 3038838, "country_code": "AD", "longitude": 1.66086, "name": "Costa Verda", "population": 0}'
b'{"latitude": 42.48749, "geonameid": 3038839, "country_code": "AD", "longitude": 1.57108, "name": "Costa Verda", "population": 0}'
b'{"latitude": 42.49157, "geonameid": 3038840, "country_code": "AD", "longitude": 1.43183, "name": "Serrat de Ventader", "population": 0}'
b'{"latitude": 42.61246, "geonameid": 3038841, "country_code": "AD", "longitude": 1.50594, "name": "Bony de Vellatocina", "population": 0}'
b'{"latitude": 42.51143, "geonameid": 3038842, "country_code": "AD", "longitude": 1.60976, "name": "Pleta Vella", "population": 0}'
b'{"latitude": 42.46645, "geonameid": 3038843, "country_code": "AD", "longitude": 1.47647, "name": "Sol\xc3\xa0 Vell", "population": 0}'
b'{"latitude": 42.65315, "geonameid": 3038844, "country_code": "AD", "longitude": 1.55207, "name": "Port Vell", "population": 0}'
b'{"latitude": 42.56799, "geonameid": 3038845, "country_code": "AD", "longitude": 1.44412, "name": "Port Negre del Pallars", "population": 0}'
b'{"latitude": 42.60103, "geonameid": 3038846, "country_code": "AD", "longitude": 1.45896, "name": "Bancal Vedeller", "population": 0}'
b'{"latitude": 42.56223, "geonameid": 3038847, "country_code": "AD", "longitude": 1.48785, "name": "Vedat del Xeig", "population": 0}'
b'{"latitude": 42.53983, "geonameid": 3038848, "country_code": "AD", "longitude": 1.50408, "name": "Vedat dels Plans", "population": 0}'
b'{"latitude": 42.57491, "geonameid": 3038849, "country_code": "AD", "longitude": 1.49849, "name": "Vedat de Coll de les Cases", "population": 0}'
b'{"latitude": 42.46836, "geonameid": 3038850, "country_code": "AD", "longitude": 1.48497, "name": "Serra del Vedat", "population": 0}'
b'{"latitude": 42.53939, "geonameid": 3038851, "country_code": "AD", "longitude": 1.50116, "name": "Planades del Vedat", "population": 0}'
b'{"latitude": 42.62075, "geonameid": 3038852, "country_code": "AD", "longitude": 1.55042, "name": "Veda de Sorteny", "population": 0}'
b'{"latitude": 42.62578, "geonameid": 3038853, "country_code": "AD", "longitude": 1.50914, "name": "Veda del Castellar", "population": 0}'
b'{"latitude": 42.52405, "geonameid": 3038854, "country_code": "AD", "longitude": 1.52124, "name": "Canal de les Veces", "population": 0}'
b'{"latitude": 42.63797, "geonameid": 3038855, "country_code": "AD", "longitude": 1.52599, "name": "Coma de Varilles", "population": 0}'
b'{"latitude": 42.56734, "geonameid": 3038856, "country_code": "AD", "longitude": 1.44421, "name": "Portella de les Vaques", "population": 0}'
b'{"latitude": 42.58129, "geonameid": 3038857, "country_code": "AD", "longitude": 1.70146, "name": "Pas de les Vaques", "population": 0}'
b'{"latitude": 42.56354, "geonameid": 3038858, "country_code": "AD", "longitude": 1.56884, "name": "Collada de les Vaques", "population": 0}'
b'{"latitude": 42.63442, "geonameid": 3038859, "country_code": "AD", "longitude": 1.47968, "name": "Roc del Vaquer", "population": 0}'
b'{"latitude": 42.60079, "geonameid": 3038860, "country_code": "AD", "longitude": 1.63691, "name": "Valls de la Coma", "population": 0}'
b'{"latitude": 42.58386, "geonameid": 3038861, "country_code": "AD", "longitude": 1.66331, "name": "Vall d\'Incles", "population": 0}'
b'{"latitude": 42.56103, "geonameid": 3038862, "country_code": "AD", "longitude": 1.68234, "name": "Vall de Soldeu", "population": 0}'
b'{"latitude": 42.57178, "geonameid": 3038863, "country_code": "AD", "longitude": 1.61415, "name": "Riu de la Vall del Riu", "population": 0}'
b'{"latitude": 42.60065, "geonameid": 3038864, "country_code": "AD", "longitude": 1.59278, "name": "Estany Gran de la Vall del Riu", "population": 0}'
b'{"latitude": 42.57326, "geonameid": 3038865, "country_code": "AD", "longitude": 1.61423, "name": "Cascada de la Vall del Riu", "population": 0}'
b'{"latitude": 42.59059, "geonameid": 3038866, "country_code": "AD", "longitude": 1.60713, "name": "Canals de la Vall del Riu", "population": 0}'
b'{"latitude": 42.58421, "geonameid": 3038867, "country_code": "AD", "longitude": 1.61129, "name": "Cam\xc3\xad de la Vall del Riu", "population": 0}'
b'{"latitude": 42.58333, "geonameid": 3038868, "country_code": "AD", "longitude": 1.61667, "name": "Bosc de la Vall del Riu", "population": 0}'
b'{"latitude": 42.59499, "geonameid": 3038869, "country_code": "AD", "longitude": 1.60747, "name": "Vall del Riu", "population": 0}'
b'{"latitude": 42.48818, "geonameid": 3038870, "country_code": "AD", "longitude": 1.66373, "name": "Coll de Vall Civera", "population": 0}'
b'{"latitude": 42.46602, "geonameid": 3038871, "country_code": "AD", "longitude": 1.50498, "name": "Obac de la Vall", "population": 0}'
b'{"latitude": 42.51146, "geonameid": 3038872, "country_code": "AD", "longitude": 1.53647, "name": "Riu Valira d\xe2\x80\x99Orient", "population": 0}'
b'{"latitude": 42.5123, "geonameid": 3038873, "country_code": "AD", "longitude": 1.53617, "name": "Riu Valira del Nord", "population": 0}'
b'{"latitude": 42.60398, "geonameid": 3038874, "country_code": "AD", "longitude": 1.59622, "name": "Estanys de la Val del Riu", "population": 0}'
b'{"latitude": 42.5681, "geonameid": 3038875, "country_code": "AD", "longitude": 1.76256, "name": "Vaca Morta", "population": 0}'
b'{"latitude": 42.5594, "geonameid": 3038876, "country_code": "AD", "longitude": 1.58998, "name": "Riu d\xe2\x80\x99Urina", "population": 0}'
b'{"latitude": 42.55975, "geonameid": 3038877, "country_code": "AD", "longitude": 1.52393, "name": "Serrat de la U\xc3\xafna", "population": 0}'
b'{"latitude": 42.48885, "geonameid": 3038878, "country_code": "AD", "longitude": 1.44734, "name": "Obaga de la Tuta", "population": 0}'
b'{"latitude": 42.48678, "geonameid": 3038879, "country_code": "AD", "longitude": 1.44548, "name": "Cova de la Tuta", "population": 0}'
b'{"latitude": 42.54941, "geonameid": 3038880, "country_code": "AD", "longitude": 1.45701, "name": "Roca del Tut", "population": 0}'
b'{"latitude": 42.55784, "geonameid": 3038881, "country_code": "AD", "longitude": 1.46979, "name": "Coll de Turer", "population": 0}'
b'{"latitude": 42.44205, "geonameid": 3038882, "country_code": "AD", "longitude": 1.53489, "name": "Font del Tud\xc3\xb3", "population": 0}'
b'{"latitude": 42.57705, "geonameid": 3038883, "country_code": "AD", "longitude": 1.44801, "name": "Estany de les Truites", "population": 0}'
b'{"latitude": 42.65048, "geonameid": 3038884, "country_code": "AD", "longitude": 1.47705, "name": "Serra de Tristaina", "population": 0}'
b'{"latitude": 42.615, "geonameid": 3038885, "country_code": "AD", "longitude": 1.53707, "name": "Riu de Tristaina", "population": 0}'
b'{"latitude": 42.65265, "geonameid": 3038886, "country_code": "AD", "longitude": 1.49242, "name": "Pic de Tristaina", "population": 0}'
b'{"latitude": 42.54063, "geonameid": 3038887, "country_code": "AD", "longitude": 1.53382, "name": "Clot de Tres Torrents", "population": 0}'
b'{"latitude": 42.52911, "geonameid": 3038888, "country_code": "AD", "longitude": 1.53538, "name": "Bony de Tres Corts", "population": 0}'
b'{"latitude": 42.49814, "geonameid": 3038889, "country_code": "AD", "longitude": 1.49076, "name": "Canal dels Tr\xc3\xa8mols", "population": 0}'
b'{"latitude": 42.60215, "geonameid": 3038890, "country_code": "AD", "longitude": 1.69377, "name": "Travenc", "population": 0}'
b'{"latitude": 42.48464, "geonameid": 3038891, "country_code": "AD", "longitude": 1.62251, "name": "Pleta de la Trava", "population": 0}'
b'{"latitude": 42.47973, "geonameid": 3038892, "country_code": "AD", "longitude": 1.47555, "name": "Coll de la Trava", "population": 0}'
b'{"latitude": 42.57395, "geonameid": 3038893, "country_code": "AD", "longitude": 1.52496, "name": "Canal de la Trava", "population": 0}'
b'{"latitude": 42.4844, "geonameid": 3038894, "country_code": "AD", "longitude": 1.63007, "name": "Bosc de la Trava", "population": 0}'
b'{"latitude": 42.43156, "geonameid": 3038895, "country_code": "AD", "longitude": 1.52845, "name": "Font dels Traginers", "population": 0}'
b'{"latitude": 42.46355, "geonameid": 3038896, "country_code": "AD", "longitude": 1.45008, "name": "Pla de les Toves", "population": 0}'
b'{"latitude": 42.47256, "geonameid": 3038897, "country_code": "AD", "longitude": 1.51244, "name": "Torrent del Tossalroi", "population": 0}'
b'{"latitude": 42.47986, "geonameid": 3038898, "country_code": "AD", "longitude": 1.4892, "name": "Tossal Gran", "population": 0}'
b'{"latitude": 42.48597, "geonameid": 3038899, "country_code": "AD", "longitude": 1.4891, "name": "Tossalet i Vinyals", "population": 0}'
b'{"latitude": 42.53331, "geonameid": 3038900, "country_code": "AD", "longitude": 1.50326, "name": "Bosc del Tossal de les Poselles", "population": 0}'
b'{"latitude": 42.45927, "geonameid": 3038901, "country_code": "AD", "longitude": 1.49176, "name": "Tossal", "population": 0}'
b'{"latitude": 42.56587, "geonameid": 3038902, "country_code": "AD", "longitude": 1.48763, "name": "Tosquers", "population": 0}'
b'{"latitude": 42.57114, "geonameid": 3038903, "country_code": "AD", "longitude": 1.52067, "name": "Canal del Tosquer", "population": 0}'
b'{"latitude": 42.57189, "geonameid": 3038904, "country_code": "AD", "longitude": 1.52369, "name": "Bosc del Tosquer", "population": 0}'
b'{"latitude": 42.53793, "geonameid": 3038905, "country_code": "AD", "longitude": 1.6007, "name": "Bosc del Tosquer", "population": 0}'
b'{"latitude": 42.43912, "geonameid": 3038906, "country_code": "AD", "longitude": 1.45592, "name": "Bosc de la Tosca", "population": 0}'
b'{"latitude": 42.58675, "geonameid": 3038907, "country_code": "AD", "longitude": 1.68935, "name": "Tosa d\xe2\x80\x99Incles", "population": 0}'
b'{"latitude": 42.60016, "geonameid": 3038908, "country_code": "AD", "longitude": 1.65212, "name": "Cap de Tosa d\xe2\x80\x99Entor", "population": 0}'
b'{"latitude": 42.62199, "geonameid": 3038909, "country_code": "AD", "longitude": 1.68087, "name": "Tosa de les Mussoles", "population": 0}'
b'{"latitude": 42.60199, "geonameid": 3038910, "country_code": "AD", "longitude": 1.72093, "name": "Pic de la Tosa de Juclar", "population": 0}'
b'{"latitude": 42.60371, "geonameid": 3038911, "country_code": "AD", "longitude": 1.6548, "name": "Collada de la Tosa de Caraup", "population": 0}'
b'{"latitude": 42.52916, "geonameid": 3038912, "country_code": "AD", "longitude": 1.45614, "name": "Planell de la Tosa", "population": 0}'
b'{"latitude": 42.59186, "geonameid": 3038913, "country_code": "AD", "longitude": 1.69687, "name": "Canals de la Tosa", "population": 0}'
b'{"latitude": 42.50928, "geonameid": 3038914, "country_code": "AD", "longitude": 1.56331, "name": "Canal de la Tosa", "population": 0}'
b'{"latitude": 42.54986, "geonameid": 3038915, "country_code": "AD", "longitude": 1.57558, "name": "Bosc de la Tosa", "population": 0}'
b'{"latitude": 42.57684, "geonameid": 3038916, "country_code": "AD", "longitude": 1.51706, "name": "Canal Torta", "population": 0}'
b'{"latitude": 42.55184, "geonameid": 3038917, "country_code": "AD", "longitude": 1.5398, "name": "Canal Torta", "population": 0}'
b'{"latitude": 42.53072, "geonameid": 3038918, "country_code": "AD", "longitude": 1.58053, "name": "Torrent Tort", "population": 0}'
b'{"latitude": 42.45175, "geonameid": 3038919, "country_code": "AD", "longitude": 1.51486, "name": "Torretiny\xc3\xa0", "population": 0}'
b'{"latitude": 42.59851, "geonameid": 3038920, "country_code": "AD", "longitude": 1.51773, "name": "Prat d\xe2\x80\x99en Torres", "population": 0}'
b'{"latitude": 42.49176, "geonameid": 3038921, "country_code": "AD", "longitude": 1.49157, "name": "Canals de Torrent Preg\xc3\xb3", "population": 0}'
b'{"latitude": 42.45323, "geonameid": 3038922, "country_code": "AD", "longitude": 1.51176, "name": "Canal de Torrentiny\xc3\xa0", "population": 0}'
b'{"latitude": 42.47221, "geonameid": 3038923, "country_code": "AD", "longitude": 1.49478, "name": "Torrentill", "population": 0}'
b'{"latitude": 42.45736, "geonameid": 3038924, "country_code": "AD", "longitude": 1.51341, "name": "Cam\xc3\xad de Torrent Forcat", "population": 0}'
b'{"latitude": 42.60095, "geonameid": 3038925, "country_code": "AD", "longitude": 1.52226, "name": "Canal del Torrent Cauber", "population": 0}'
b'{"latitude": 42.45021, "geonameid": 3038926, "country_code": "AD", "longitude": 1.58341, "name": "Torre dels Soldats", "population": 0}'
b'{"latitude": 42.53573, "geonameid": 3038927, "country_code": "AD", "longitude": 1.52558, "name": "Torrapuis", "population": 0}'
b'{"latitude": 42.59369, "geonameid": 3038928, "country_code": "AD", "longitude": 1.62372, "name": "Pic de Torradella", "population": 0}'
b'{"latitude": 42.59144, "geonameid": 3038929, "country_code": "AD", "longitude": 1.62356, "name": "Pala de la Torradella", "population": 0}'
b'{"latitude": 42.5952, "geonameid": 3038930, "country_code": "AD", "longitude": 1.62615, "name": "Obaga de Torradella", "population": 0}'
b'{"latitude": 42.59343, "geonameid": 3038931, "country_code": "AD", "longitude": 1.63686, "name": "Canals de Torradella", "population": 0}'
b'{"latitude": 42.5815, "geonameid": 3038932, "country_code": "AD", "longitude": 1.48657, "name": "Borda del Torner", "population": 0}'
b'{"latitude": 42.55261, "geonameid": 3038933, "country_code": "AD", "longitude": 1.61504, "name": "Planell de la Tora", "population": 0}'
b'{"latitude": 42.46131, "geonameid": 3038934, "country_code": "AD", "longitude": 1.5772, "name": "Clots de la Tora", "population": 0}'
b'{"latitude": 42.5595, "geonameid": 3038935, "country_code": "AD", "longitude": 1.6221, "name": "Prat del Toni", "population": 0}'
b'{"latitude": 42.57774, "geonameid": 3038936, "country_code": "AD", "longitude": 1.6505, "name": "Mol\xc3\xad del Tom\xc3\xa0s", "population": 0}'
b'{"latitude": 42.44734, "geonameid": 3038937, "country_code": "AD", "longitude": 1.47787, "name": "Cortals de Tolse", "population": 0}'
b'{"latitude": 42.4483, "geonameid": 3038938, "country_code": "AD", "longitude": 1.47908, "name": "Bosc de Tolse", "population": 0}'
b'{"latitude": 42.4503, "geonameid": 3038939, "country_code": "AD", "longitude": 1.48508, "name": "Tolse", "population": 0}'
b'{"latitude": 42.48484, "geonameid": 3038940, "country_code": "AD", "longitude": 1.45301, "name": "Basera dels Tolls de l\xe2\x80\x99Olla", "population": 0}'
b'{"latitude": 42.46535, "geonameid": 3038941, "country_code": "AD", "longitude": 1.56957, "name": "Tolls de l\xe2\x80\x99Olla", "population": 0}'
b'{"latitude": 42.53145, "geonameid": 3038942, "country_code": "AD", "longitude": 1.58845, "name": "Torrent del Tirader", "population": 0}'
b'{"latitude": 42.50307, "geonameid": 3038943, "country_code": "AD", "longitude": 1.47727, "name": "Canal del Timbarro", "population": 0}'
b'{"latitude": 42.4779, "geonameid": 3038944, "country_code": "AD", "longitude": 1.50509, "name": "Terres de Serra", "population": 0}'
b'{"latitude": 42.49748, "geonameid": 3038945, "country_code": "AD", "longitude": 1.57716, "name": "Terres de Sant Miguel", "population": 0}'
b'{"latitude": 42.54814, "geonameid": 3038946, "country_code": "AD", "longitude": 1.59154, "name": "Terres del Torrent Preg\xc3\xb3", "population": 0}'
b'{"latitude": 42.54187, "geonameid": 3038947, "country_code": "AD", "longitude": 1.54338, "name": "Terres del Sol\xc3\xa0", "population": 0}'
b'{"latitude": 42.56995, "geonameid": 3038948, "country_code": "AD", "longitude": 1.61431, "name": "Terres de Jacques", "population": 0}'
b'{"latitude": 42.57117, "geonameid": 3038949, "country_code": "AD", "longitude": 1.55095, "name": "Obaga de les Terres de Casamanya", "population": 0}'
b'{"latitude": 42.5881, "geonameid": 3038950, "country_code": "AD", "longitude": 1.46094, "name": "Canal del Terrer Roig", "population": 0}'
b'{"latitude": 42.58892, "geonameid": 3038951, "country_code": "AD", "longitude": 1.45395, "name": "Terrer Roig", "population": 0}'
b'{"latitude": 42.62292, "geonameid": 3038952, "country_code": "AD", "longitude": 1.61256, "name": "Clots dels Terregalls", "population": 0}'
b'{"latitude": 42.49527, "geonameid": 3038953, "country_code": "AD", "longitude": 1.52939, "name": "Terregalls", "population": 0}'
b'{"latitude": 42.47431, "geonameid": 3038954, "country_code": "AD", "longitude": 1.48904, "name": "Terra del Pou", "population": 0}'
b'{"latitude": 42.4682, "geonameid": 3038955, "country_code": "AD", "longitude": 1.49909, "name": "Terra Bogada", "population": 0}'
b'{"latitude": 42.55646, "geonameid": 3038956, "country_code": "AD", "longitude": 1.50498, "name": "Canal del Teix\xc3\xb3", "population": 0}'
b'{"latitude": 42.46842, "geonameid": 3038957, "country_code": "AD", "longitude": 1.47084, "name": "Coma de Teix", "population": 0}'
b'{"latitude": 42.55315, "geonameid": 3038958, "country_code": "AD", "longitude": 1.55727, "name": "Font de les Taules", "population": 0}'
b'{"latitude": 42.48716, "geonameid": 3038959, "country_code": "AD", "longitude": 1.45937, "name": "Coma Tarterosa", "population": 0}'
b'{"latitude": 42.60215, "geonameid": 3038960, "country_code": "AD", "longitude": 1.64186, "name": "Bosc de la Tarterosa", "population": 0}'
b'{"latitude": 42.58148, "geonameid": 3038961, "country_code": "AD", "longitude": 1.45787, "name": "Tarter Gran", "population": 0}'
b'{"latitude": 42.48102, "geonameid": 3038962, "country_code": "AD", "longitude": 1.47442, "name": "Tartera Gran", "population": 0}'
b'{"latitude": 42.57811, "geonameid": 3038963, "country_code": "AD", "longitude": 1.64897, "name": "Pont del Tarter", "population": 0}'
b'{"latitude": 42.47156, "geonameid": 3038964, "country_code": "AD", "longitude": 1.4909, "name": "Coll de la T\xc3\xa0pia", "population": 0}'
b'{"latitude": 42.48899, "geonameid": 3038965, "country_code": "AD", "longitude": 1.55854, "name": "Canal Tancada", "population": 0}'
b'{"latitude": 42.58498, "geonameid": 3038966, "country_code": "AD", "longitude": 1.48339, "name": "Roc del Tampuent", "population": 0}'
b'{"latitude": 42.50094, "geonameid": 3038967, "country_code": "AD", "longitude": 1.46747, "name": "Basers de les Tallades", "population": 0}'
b'{"latitude": 42.58466, "geonameid": 3038968, "country_code": "AD", "longitude": 1.47311, "name": "Bosc de la Tallada Nova", "population": 0}'
b'{"latitude": 42.4893, "geonameid": 3038969, "country_code": "AD", "longitude": 1.57116, "name": "Cam\xc3\xad de la Tallada", "population": 0}'
b'{"latitude": 42.57975, "geonameid": 3038970, "country_code": "AD", "longitude": 1.51897, "name": "Canal del Tabanell", "population": 0}'
b'{"latitude": 42.58113, "geonameid": 3038971, "country_code": "AD", "longitude": 1.50496, "name": "Bosc del Tabanell", "population": 0}'
b'{"latitude": 42.58664, "geonameid": 3038972, "country_code": "AD", "longitude": 1.60654, "name": "Suriguera", "population": 0}'
b'{"latitude": 42.58341, "geonameid": 3038973, "country_code": "AD", "longitude": 1.45016, "name": "Sudornar", "population": 0}'
b'{"latitude": 42.52245, "geonameid": 3038974, "country_code": "AD", "longitude": 1.47512, "name": "Font del Sucre", "population": 0}'
b'{"latitude": 42.6067, "geonameid": 3038975, "country_code": "AD", "longitude": 1.49918, "name": "Costa de la Sucarana", "population": 0}'
b'{"latitude": 42.60509, "geonameid": 3038976, "country_code": "AD", "longitude": 1.50477, "name": "Canya de la Sucarana", "population": 0}'
b'{"latitude": 42.55439, "geonameid": 3038977, "country_code": "AD", "longitude": 1.58269, "name": "Borda del Sucarana", "population": 0}'
b'{"latitude": 42.6236, "geonameid": 3038978, "country_code": "AD", "longitude": 1.54769, "name": "Riu de Sorteny", "population": 0}'
b'{"latitude": 42.62188, "geonameid": 3038979, "country_code": "AD", "longitude": 1.56503, "name": "Pla de Sorteny", "population": 0}'
b'{"latitude": 42.62147, "geonameid": 3038980, "country_code": "AD", "longitude": 1.55236, "name": "Marrades de Sorteny", "population": 0}'
b'{"latitude": 42.61675, "geonameid": 3038981, "country_code": "AD", "longitude": 1.57936, "name": "Sorteny", "population": 0}'
b'{"latitude": 42.53933, "geonameid": 3038982, "country_code": "AD", "longitude": 1.64583, "name": "Riu de les Soronelles", "population": 0}'
b'{"latitude": 42.54792, "geonameid": 3038983, "country_code": "AD", "longitude": 1.65159, "name": "Collada de les Soronelles", "population": 0}'
b'{"latitude": 42.56677, "geonameid": 3038984, "country_code": "AD", "longitude": 1.53956, "name": "Pic de les Sorobilles", "population": 0}'
b'{"latitude": 42.56314, "geonameid": 3038985, "country_code": "AD", "longitude": 1.52724, "name": "Riu de Sorn\xc3\xa0s", "population": 0}'
b'{"latitude": 42.57766, "geonameid": 3038986, "country_code": "AD", "longitude": 1.55066, "name": "Clot de Sorn\xc3\xa0s", "population": 0}'
b'{"latitude": 42.56461, "geonameid": 3038987, "country_code": "AD", "longitude": 1.52757, "name": "Sorn\xc3\xa0s", "population": 0}'
b'{"latitude": 42.58564, "geonameid": 3038988, "country_code": "AD", "longitude": 1.60996, "name": "Riu de Suriguera", "population": 0}'
b'{"latitude": 42.56963, "geonameid": 3038989, "country_code": "AD", "longitude": 1.55225, "name": "Solana del Soriguer", "population": 0}'
b'{"latitude": 42.60053, "geonameid": 3038990, "country_code": "AD", "longitude": 1.65448, "name": "Clot Sord", "population": 0}'
b'{"latitude": 42.45544, "geonameid": 3038991, "country_code": "AD", "longitude": 1.48099, "name": "Sol\xc3\xa0 de Soquer", "population": 0}'
b'{"latitude": 42.5792, "geonameid": 3038992, "country_code": "AD", "longitude": 1.62939, "name": "Riu de Soplan\xc3\xa0s", "population": 0}'
b'{"latitude": 42.57027, "geonameid": 3038993, "country_code": "AD", "longitude": 1.59043, "name": "Borda de Som", "population": 0}'
b'{"latitude": 42.49267, "geonameid": 3038994, "country_code": "AD", "longitude": 1.50825, "name": "Roc de Solobre", "population": 0}'
b'{"latitude": 42.49044, "geonameid": 3038995, "country_code": "AD", "longitude": 1.50667, "name": "Bosc del Solobre", "population": 0}'
b'{"latitude": 42.60191, "geonameid": 3038996, "country_code": "AD", "longitude": 1.52112, "name": "Bosc del Soleador", "population": 0}'
b'{"latitude": 42.57724, "geonameid": 3038997, "country_code": "AD", "longitude": 1.65827, "name": "Cam\xc3\xad de Soldeu", "population": 0}'
b'{"latitude": 42.57907, "geonameid": 3038998, "country_code": "AD", "longitude": 1.67292, "name": "Bosc de Soldeu", "population": 0}'
b'{"latitude": 42.57688, "geonameid": 3038999, "country_code": "AD", "longitude": 1.66769, "name": "Soldeu", "population": 602}'
b'{"latitude": 42.53909, "geonameid": 3039000, "country_code": "AD", "longitude": 1.54785, "name": "Solana del Solany\xc3\xb3", "population": 0}'
b'{"latitude": 42.5403, "geonameid": 3039001, "country_code": "AD", "longitude": 1.54193, "name": "Riu del Solany\xc3\xb2", "population": 0}'
b'{"latitude": 42.55022, "geonameid": 3039002, "country_code": "AD", "longitude": 1.44836, "name": "Bosc del Solany\xc3\xb3", "population": 0}'
b'{"latitude": 42.5423, "geonameid": 3039003, "country_code": "AD", "longitude": 1.44112, "name": "Barranc del Solany\xc3\xb3", "population": 0}'
b'{"latitude": 42.53893, "geonameid": 3039004, "country_code": "AD", "longitude": 1.60137, "name": "Solans", "population": 0}'
b'{"latitude": 42.50063, "geonameid": 3039005, "country_code": "AD", "longitude": 1.5699, "name": "Solanet de R\xc3\xa0mio", "population": 0}'
b'{"latitude": 42.62685, "geonameid": 3039006, "country_code": "AD", "longitude": 1.60523, "name": "Terregalls del Solanet", "population": 0}'
b'{"latitude": 42.54591, "geonameid": 3039007, "country_code": "AD", "longitude": 1.47924, "name": "Bosc del Solanet", "population": 0}'
b'{"latitude": 42.45651, "geonameid": 3039008, "country_code": "AD", "longitude": 1.51879, "name": "Solanes de la Peguera", "population": 0}'
b'{"latitude": 42.54876, "geonameid": 3039009, "country_code": "AD", "longitude": 1.6657, "name": "Serra de les Solanelles", "population": 0}'
b'{"latitude": 42.55334, "geonameid": 3039010, "country_code": "AD", "longitude": 1.68271, "name": "Riu de les Solanelles", "population": 0}'
b'{"latitude": 42.56068, "geonameid": 3039011, "country_code": "AD", "longitude": 1.63082, "name": "Collet de les Solanelles", "population": 0}'
b'{"latitude": 42.54489, "geonameid": 3039012, "country_code": "AD", "longitude": 1.66049, "name": "Collada de les Solanelles", "population": 0}'
b'{"latitude": 42.56109, "geonameid": 3039013, "country_code": "AD", "longitude": 1.63812, "name": "Clot de les Solanelles", "population": 0}'
b'{"latitude": 42.56324, "geonameid": 3039014, "country_code": "AD", "longitude": 1.64181, "name": "Canal de les Solanelles", "population": 0}'
b'{"latitude": 42.54391, "geonameid": 3039015, "country_code": "AD", "longitude": 1.66123, "name": "Cabana de les Solanelles", "population": 0}'
b'{"latitude": 42.54973, "geonameid": 3039016, "country_code": "AD", "longitude": 1.671, "name": "Solanelles", "population": 0}'
b'{"latitude": 42.53941, "geonameid": 3039017, "country_code": "AD", "longitude": 1.73436, "name": "Barranc de la Solana del Pas de la Casa", "population": 0}'
b'{"latitude": 42.54731, "geonameid": 3039018, "country_code": "AD", "longitude": 1.52097, "name": "Solana del Lloser d\xe2\x80\x99Ordino", "population": 0}'
b'{"latitude": 42.56243, "geonameid": 3039019, "country_code": "AD", "longitude": 1.67948, "name": "Riu de la Solana del Forn", "population": 0}'
b'{"latitude": 42.54984, "geonameid": 3039020, "country_code": "AD", "longitude": 1.66303, "name": "Obagot de la Solana del Forn", "population": 0}'
b'{"latitude": 42.55607, "geonameid": 3039021, "country_code": "AD", "longitude": 1.66272, "name": "Solana del Forn", "population": 0}'
b'{"latitude": 42.49453, "geonameid": 3039022, "country_code": "AD", "longitude": 1.62389, "name": "Solana de l\xe2\x80\x99Estall Serrer", "population": 0}'
b'{"latitude": 42.56034, "geonameid": 3039023, "country_code": "AD", "longitude": 1.56774, "name": "Solana de les Aubes", "population": 0}'
b'{"latitude": 42.5388, "geonameid": 3039024, "country_code": "AD", "longitude": 1.62326, "name": "Solana de la Baronia", "population": 0}'
b'{"latitude": 42.56836, "geonameid": 3039025, "country_code": "AD", "longitude": 1.77496, "name": "Prats de la Solana", "population": 0}'
b'{"latitude": 42.44246, "geonameid": 3039026, "country_code": "AD", "longitude": 1.45091, "name": "Cam\xc3\xad de la Solana", "population": 0}'
b'{"latitude": 42.52218, "geonameid": 3039027, "country_code": "AD", "longitude": 1.47205, "name": "Bosc de la Solana", "population": 0}'
b'{"latitude": 42.57771, "geonameid": 3039028, "country_code": "AD", "longitude": 1.67266, "name": "Sol\xc3\xa0 de Soldeu", "population": 0}'
b'{"latitude": 42.53045, "geonameid": 3039029, "country_code": "AD", "longitude": 1.47634, "name": "Serra del Sol\xc3\xa0 de Sispony", "population": 0}'
b'{"latitude": 42.56847, "geonameid": 3039030, "country_code": "AD", "longitude": 1.5048, "name": "Pic del Sol\xc3\xa0 d\xe2\x80\x99Erts", "population": 0}'
b'{"latitude": 42.56153, "geonameid": 3039031, "country_code": "AD", "longitude": 1.49656, "name": "Sol\xc3\xa0 d\xe2\x80\x99Erts", "population": 0}'
b'{"latitude": 42.57859, "geonameid": 3039032, "country_code": "AD", "longitude": 1.5287, "name": "Sol\xc3\xa0 de Riambert", "population": 0}'
b'{"latitude": 42.50418, "geonameid": 3039033, "country_code": "AD", "longitude": 1.58339, "name": "Serra del Sol\xc3\xa0 de R\xc3\xa0mio", "population": 0}'
b'{"latitude": 42.50173, "geonameid": 3039034, "country_code": "AD", "longitude": 1.58283, "name": "Sol\xc3\xa0 de R\xc3\xa0mio", "population": 0}'
b'{"latitude": 42.56267, "geonameid": 3039035, "country_code": "AD", "longitude": 1.6847, "name": "Bosc del Sol\xc3\xa0 d\xe2\x80\x99Envalira", "population": 0}'
b'{"latitude": 42.52208, "geonameid": 3039036, "country_code": "AD", "longitude": 1.53759, "name": "Carena del Sol\xc3\xa0 d\xe2\x80\x99Engordany", "population": 0}'
b'{"latitude": 42.51969, "geonameid": 3039037, "country_code": "AD", "longitude": 1.53707, "name": "Sol\xc3\xa0 d\xe2\x80\x99Engordany", "population": 0}'
b'{"latitude": 42.50652, "geonameid": 3039038, "country_code": "AD", "longitude": 1.48914, "name": "Sol\xc3\xa0 d\xe2\x80\x99Enclar", "population": 0}'
b'{"latitude": 42.53695, "geonameid": 3039039, "country_code": "AD", "longitude": 1.58068, "name": "Sol\xc3\xa0 d\xe2\x80\x99Encamp", "population": 0}'
b'{"latitude": 42.51112, "geonameid": 3039040, "country_code": "AD", "longitude": 1.51228, "name": "Cresta del Sol\xc3\xa0 de Nadal", "population": 0}'
b'{"latitude": 42.5137, "geonameid": 3039041, "country_code": "AD", "longitude": 1.52185, "name": "Aspres del Sol\xc3\xa0 de Nadal", "population": 0}'
b'{"latitude": 42.45914, "geonameid": 3039042, "country_code": "AD", "longitude": 1.46328, "name": "Sol\xc3\xa0 de Mossers", "population": 0}'
b'{"latitude": 42.56083, "geonameid": 3039043, "country_code": "AD", "longitude": 1.58546, "name": "Sol\xc3\xa0 de Mereig", "population": 0}'
b'{"latitude": 42.5849, "geonameid": 3039044, "country_code": "AD", "longitude": 1.64905, "name": "Sol\xc3\xa0 del Tarter", "population": 0}'
b'{"latitude": 42.48854, "geonameid": 3039045, "country_code": "AD", "longitude": 1.56625, "name": "Sol\xc3\xa0 dels Sulls", "population": 0}'
b'{"latitude": 42.58384, "geonameid": 3039046, "country_code": "AD", "longitude": 1.62968, "name": "Sol\xc3\xa0 dels Plans", "population": 0}'
b'{"latitude": 42.54577, "geonameid": 3039047, "country_code": "AD", "longitude": 1.53975, "name": "Serra del Sola del Quart Mitger", "population": 0}'
b'{"latitude": 42.54238, "geonameid": 3039048, "country_code": "AD", "longitude": 1.53702, "name": "Sol\xc3\xa0 del Quart Mitger", "population": 0}'
b'{"latitude": 42.55503, "geonameid": 3039049, "country_code": "AD", "longitude": 1.51236, "name": "Sol\xc3\xa0 del Pui", "population": 0}'
b'{"latitude": 42.57856, "geonameid": 3039050, "country_code": "AD", "longitude": 1.49624, "name": "Cap del Sol\xc3\xa0 de les Comes", "population": 0}'
b'{"latitude": 42.5713, "geonameid": 3039051, "country_code": "AD", "longitude": 1.49208, "name": "Canal del Sol\xc3\xa0 de les Comes", "population": 0}'
b'{"latitude": 42.44273, "geonameid": 3039052, "country_code": "AD", "longitude": 1.47534, "name": "Sol\xc3\xa0 de la Moixella", "population": 0}'
b'{"latitude": 42.59436, "geonameid": 3039053, "country_code": "AD", "longitude": 1.53815, "name": "Balmes del Sol\xc3\xa0 de l\xe2\x80\x99Allau", "population": 0}'
b'{"latitude": 42.57983, "geonameid": 3039054, "country_code": "AD", "longitude": 1.62252, "name": "Sol\xc3\xa0 de l\xe2\x80\x99Aldosa", "population": 0}'
b'{"latitude": 42.49531, "geonameid": 3039055, "country_code": "AD", "longitude": 1.60986, "name": "Sol\xc3\xa0 de la Farga", "population": 0}'
b'{"latitude": 42.60389, "geonameid": 3039056, "country_code": "AD", "longitude": 1.70297, "name": "Canals del Sol\xc3\xa0 de Juclar", "population": 0}'
b'{"latitude": 42.43343, "geonameid": 3039057, "country_code": "AD", "longitude": 1.49273, "name": "Sol\xc3\xa0 d\xe2\x80\x99Arcavell", "population": 0}'
b'{"latitude": 42.51091, "geonameid": 3039058, "country_code": "AD", "longitude": 1.50732, "name": "Sol\xc3\xa0 d\xe2\x80\x99Andorra", "population": 0}'
b'{"latitude": 42.47959, "geonameid": 3039059, "country_code": "AD", "longitude": 1.47873, "name": "Sol\xc3\xa0 d\xe2\x80\x99Aixovall", "population": 0}'
b'{"latitude": 42.5437, "geonameid": 3039060, "country_code": "AD", "longitude": 1.47792, "name": "Riu del Sol\xc3\xa0", "population": 0}'
b'{"latitude": 42.4619, "geonameid": 3039061, "country_code": "AD", "longitude": 1.46137, "name": "Clot del Sol\xc3\xa0", "population": 0}'
b'{"latitude": 42.53874, "geonameid": 3039062, "country_code": "AD", "longitude": 1.57666, "name": "Carrera del Sol\xc3\xa0", "population": 0}'
b'{"latitude": 42.49828, "geonameid": 3039063, "country_code": "AD", "longitude": 1.46311, "name": "Costa del Sodorn", "population": 0}'
b'{"latitude": 42.55393, "geonameid": 3039064, "country_code": "AD", "longitude": 1.60269, "name": "Pla del Socarrat", "population": 0}'
b'{"latitude": 42.58267, "geonameid": 3039065, "country_code": "AD", "longitude": 1.63922, "name": "Cam\xc3\xad del Socarrat", "population": 0}'
b'{"latitude": 42.58627, "geonameid": 3039066, "country_code": "AD", "longitude": 1.64155, "name": "Bosc del Socarrat", "population": 0}'
b'{"latitude": 42.58996, "geonameid": 3039067, "country_code": "AD", "longitude": 1.46444, "name": "Vial de la Socarrada de Coll Carnisser", "population": 0}'
b'{"latitude": 42.61391, "geonameid": 3039068, "country_code": "AD", "longitude": 1.72592, "name": "Pala de Sobre l\xe2\x80\x99Estany", "population": 0}'
b'{"latitude": 42.59149, "geonameid": 3039069, "country_code": "AD", "longitude": 1.70692, "name": "Pala de Sobre les Basses", "population": 0}'
b'{"latitude": 42.59261, "geonameid": 3039070, "country_code": "AD", "longitude": 1.46359, "name": "Basers de Sobre la Pleta", "population": 0}'
b'{"latitude": 42.58232, "geonameid": 3039071, "country_code": "AD", "longitude": 1.50546, "name": "Sobre dels Camps de la Cortinada", "population": 0}'
b'{"latitude": 42.58908, "geonameid": 3039072, "country_code": "AD", "longitude": 1.46404, "name": "Planells Sobirans", "population": 0}'
b'{"latitude": 42.6013, "geonameid": 3039073, "country_code": "AD", "longitude": 1.6973, "name": "Riu del Sisquer\xc3\xb3", "population": 0}'
b'{"latitude": 42.6013, "geonameid": 3039074, "country_code": "AD", "longitude": 1.69494, "name": "Cam\xc3\xad del Sisquero", "population": 0}'
b'{"latitude": 42.53091, "geonameid": 3039075, "country_code": "AD", "longitude": 1.48454, "name": "Sol\xc3\xa0 de Sispony", "population": 0}'
b'{"latitude": 42.52857, "geonameid": 3039076, "country_code": "AD", "longitude": 1.46901, "name": "Cam\xc3\xad de Sispony", "population": 0}'
b'{"latitude": 42.53368, "geonameid": 3039077, "country_code": "AD", "longitude": 1.51613, "name": "Sispony", "population": 0}'
b'{"latitude": 42.59425, "geonameid": 3039078, "country_code": "AD", "longitude": 1.70477, "name": "Pletes del Siscar\xc3\xb3", "population": 0}'
b'{"latitude": 42.58654, "geonameid": 3039079, "country_code": "AD", "longitude": 1.70713, "name": "Estanys del Siscar\xc3\xb3", "population": 0}'
b'{"latitude": 42.58286, "geonameid": 3039080, "country_code": "AD", "longitude": 1.70562, "name": "Canals del Siscar\xc3\xb3", "population": 0}'
b'{"latitude": 42.6, "geonameid": 3039081, "country_code": "AD", "longitude": 1.73333, "name": "Pic de Siscarou", "population": 0}'
b'{"latitude": 42.58977, "geonameid": 3039082, "country_code": "AD", "longitude": 1.71206, "name": "Siscar\xc3\xb3", "population": 0}'
b'{"latitude": 42.59179, "geonameid": 3039083, "country_code": "AD", "longitude": 1.71304, "name": "Marrades del Siscar", "population": 0}'
b'{"latitude": 42.59751, "geonameid": 3039084, "country_code": "AD", "longitude": 1.71696, "name": "Canals del Siscar", "population": 0}'
b'{"latitude": 42.5951, "geonameid": 3039085, "country_code": "AD", "longitude": 1.71725, "name": "Basses del Siscar", "population": 0}'
b'{"latitude": 42.48947, "geonameid": 3039086, "country_code": "AD", "longitude": 1.50151, "name": "Sincloset", "population": 0}'
b'{"latitude": 42.64974, "geonameid": 3039087, "country_code": "AD", "longitude": 1.56563, "name": "Port de Siguer", "population": 0}'
b'{"latitude": 42.52948, "geonameid": 3039088, "country_code": "AD", "longitude": 1.61219, "name": "Bosc del Sigarr\xc3\xb3", "population": 0}'
b'{"latitude": 42.50328, "geonameid": 3039089, "country_code": "AD", "longitude": 1.47545, "name": "Canal de la Sicalma", "population": 0}'
b'{"latitude": 42.46782, "geonameid": 3039090, "country_code": "AD", "longitude": 1.63909, "name": "Portella de Setut", "population": 0}'
b'{"latitude": 42.48283, "geonameid": 3039091, "country_code": "AD", "longitude": 1.64367, "name": "Cabana de Setut", "population": 0}'
b'{"latitude": 42.48195, "geonameid": 3039092, "country_code": "AD", "longitude": 1.64586, "name": "Basses de Setut", "population": 0}'
b'{"latitude": 42.4761, "geonameid": 3039093, "country_code": "AD", "longitude": 1.64936, "name": "Setut", "population": 0}'
b'{"latitude": 42.54378, "geonameid": 3039094, "country_code": "AD", "longitude": 1.45346, "name": "Carretera de Set\xc3\xbaria", "population": 0}'
b'{"latitude": 42.54238, "geonameid": 3039095, "country_code": "AD", "longitude": 1.45994, "name": "Cam\xc3\xad de Set\xc3\xbaria", "population": 0}'
b'{"latitude": 42.54502, "geonameid": 3039096, "country_code": "AD", "longitude": 1.44014, "name": "Bordes de Set\xc3\xbaria", "population": 0}'
b'{"latitude": 42.54951, "geonameid": 3039097, "country_code": "AD", "longitude": 1.43686, "name": "Set\xc3\xbaria", "population": 0}'
b'{"latitude": 42.61736, "geonameid": 3039098, "country_code": "AD", "longitude": 1.58304, "name": "Tarteres de la Serrera", "population": 0}'
b'{"latitude": 42.62295, "geonameid": 3039099, "country_code": "AD", "longitude": 1.57525, "name": "Riu de la Serrera", "population": 0}'
b'{"latitude": 42.62083, "geonameid": 3039100, "country_code": "AD", "longitude": 1.57954, "name": "Pleta de la Serrera", "population": 0}'
b'{"latitude": 42.62562, "geonameid": 3039101, "country_code": "AD", "longitude": 1.60103, "name": "Pic de la Serrera", "population": 0}'
b'{"latitude": 42.62197, "geonameid": 3039102, "country_code": "AD", "longitude": 1.57915, "name": "Pas de la Serrera", "population": 0}'
b'{"latitude": 42.61722, "geonameid": 3039103, "country_code": "AD", "longitude": 1.59939, "name": "Clots de la Serrera", "population": 0}'
b'{"latitude": 42.61261, "geonameid": 3039104, "country_code": "AD", "longitude": 1.58919, "name": "Aspres de la Serrera", "population": 0}'
b'{"latitude": 42.52967, "geonameid": 3039105, "country_code": "AD", "longitude": 1.50344, "name": "Canal de Serrats", "population": 0}'
b'{"latitude": 42.44084, "geonameid": 3039106, "country_code": "AD", "longitude": 1.46306, "name": "Cam\xc3\xad del Serrat Pla", "population": 0}'
b'{"latitude": 42.52286, "geonameid": 3039107, "country_code": "AD", "longitude": 1.48807, "name": "Bosc del Serrat Llong", "population": 0}'
b'{"latitude": 42.58134, "geonameid": 3039108, "country_code": "AD", "longitude": 1.6222, "name": "Planell del Serrat del Tronc", "population": 0}'
b'{"latitude": 42.48234, "geonameid": 3039109, "country_code": "AD", "longitude": 1.63098, "name": "Cabana del Serrat de la Barracota", "population": 0}'
b'{"latitude": 42.50757, "geonameid": 3039110, "country_code": "AD", "longitude": 1.7089, "name": "Pic de Serra Seca", "population": 0}'
b'{"latitude": 42.48484, "geonameid": 3039111, "country_code": "AD", "longitude": 1.49463, "name": "Canal de Serra Plana", "population": 0}'
b'{"latitude": 42.54978, "geonameid": 3039112, "country_code": "AD", "longitude": 1.51102, "name": "Riu de Serrana", "population": 0}'
b'{"latitude": 42.47512, "geonameid": 3039113, "country_code": "AD", "longitude": 1.61682, "name": "Pic de Serra Mitjana", "population": 0}'
b'{"latitude": 42.47497, "geonameid": 3039114, "country_code": "AD", "longitude": 1.61125, "name": "Estany de Serra Mitjana", "population": 0}'
b'{"latitude": 42.47738, "geonameid": 3039115, "country_code": "AD", "longitude": 1.62038, "name": "Canal Ampla de Serra Mitjana", "population": 0}'
b'{"latitude": 42.48452, "geonameid": 3039116, "country_code": "AD", "longitude": 1.4721, "name": "Canal de la Serradora", "population": 0}'
b'{"latitude": 42.49971, "geonameid": 3039117, "country_code": "AD", "longitude": 1.57781, "name": "Canal Serradora", "population": 0}'
b'{"latitude": 42.58606, "geonameid": 3039118, "country_code": "AD", "longitude": 1.59218, "name": "Cap de la Serra dels Isards", "population": 0}'
b'{"latitude": 42.61961, "geonameid": 3039119, "country_code": "AD", "longitude": 1.53763, "name": "Serrat dels Serradells", "population": 0}'
b'{"latitude": 42.53914, "geonameid": 3039120, "country_code": "AD", "longitude": 1.49664, "name": "Cortal de la Serra", "population": 0}'
b'{"latitude": 42.61738, "geonameid": 3039121, "country_code": "AD", "longitude": 1.60429, "name": "Cap de la Serrera", "population": 0}'
b'{"latitude": 42.44497, "geonameid": 3039122, "country_code": "AD", "longitude": 1.48872, "name": "Roc de la Senyoreta", "population": 0}'
b'{"latitude": 42.44607, "geonameid": 3039123, "country_code": "AD", "longitude": 1.49014, "name": "Bosc de la Senyoreta", "population": 0}'
b'{"latitude": 42.64862, "geonameid": 3039124, "country_code": "AD", "longitude": 1.56174, "name": "Senyal Negre", "population": 0}'
b'{"latitude": 42.46753, "geonameid": 3039125, "country_code": "AD", "longitude": 1.48366, "name": "Senyal de Missa", "population": 0}'
b'{"latitude": 42.50244, "geonameid": 3039126, "country_code": "AD", "longitude": 1.52863, "name": "Roc de Senders", "population": 0}'
b'{"latitude": 42.56258, "geonameid": 3039127, "country_code": "AD", "longitude": 1.59241, "name": "Sella", "population": 0}'
b'{"latitude": 42.57064, "geonameid": 3039128, "country_code": "AD", "longitude": 1.61092, "name": "Riu del Seig", "population": 0}'
b'{"latitude": 42.60689, "geonameid": 3039129, "country_code": "AD", "longitude": 1.53368, "name": "Canal del Seig", "population": 0}'
b'{"latitude": 42.56053, "geonameid": 3039130, "country_code": "AD", "longitude": 1.53745, "name": "Sol\xc3\xa0 de Segudet", "population": 0}'
b'{"latitude": 42.5579, "geonameid": 3039131, "country_code": "AD", "longitude": 1.54232, "name": "Riu de Segudet", "population": 0}'
b'{"latitude": 42.55713, "geonameid": 3039132, "country_code": "AD", "longitude": 1.53808, "name": "Segudet", "population": 0}'
b'{"latitude": 42.61012, "geonameid": 3039133, "country_code": "AD", "longitude": 1.72483, "name": "Estany Segon", "population": 0}'
b'{"latitude": 42.53784, "geonameid": 3039134, "country_code": "AD", "longitude": 1.58428, "name": "Torrent del Segalars", "population": 0}'
b'{"latitude": 42.58966, "geonameid": 3039135, "country_code": "AD", "longitude": 1.51235, "name": "Cam\xc3\xad de Sedornet", "population": 0}'
b'{"latitude": 42.59057, "geonameid": 3039136, "country_code": "AD", "longitude": 1.51759, "name": "Bordes de Sedornet", "population": 0}'
b'{"latitude": 42.48678, "geonameid": 3039137, "country_code": "AD", "longitude": 1.50183, "name": "Costa Seda", "population": 0}'
b'{"latitude": 42.43506, "geonameid": 3039138, "country_code": "AD", "longitude": 1.53791, "name": "Planells Secants", "population": 0}'
b'{"latitude": 42.52218, "geonameid": 3039139, "country_code": "AD", "longitude": 1.47458, "name": "Riu Sec", "population": 0}'
b'{"latitude": 42.47272, "geonameid": 3039140, "country_code": "AD", "longitude": 1.62321, "name": "Estany Sec", "population": 0}'
b'{"latitude": 42.55854, "geonameid": 3039141, "country_code": "AD", "longitude": 1.52635, "name": "Borda del Savoiano", "population": 0}'
b'{"latitude": 42.5735, "geonameid": 3039142, "country_code": "AD", "longitude": 1.57811, "name": "Serra de la Sauvata", "population": 0}'
b'{"latitude": 42.57536, "geonameid": 3039143, "country_code": "AD", "longitude": 1.58103, "name": "Costa de la Sauvata", "population": 0}'
b'{"latitude": 42.5779, "geonameid": 3039144, "country_code": "AD", "longitude": 1.62507, "name": "Roc del Sastre", "population": 0}'
b'{"latitude": 42.50061, "geonameid": 3039145, "country_code": "AD", "longitude": 1.55539, "name": "Pont Sassanat", "population": 0}'
b'{"latitude": 42.55487, "geonameid": 3039146, "country_code": "AD", "longitude": 1.59841, "name": "Saquet", "population": 0}'
b'{"latitude": 42.49531, "geonameid": 3039147, "country_code": "AD", "longitude": 1.49424, "name": "Roc de Sant Vicen\xc3\xa7", "population": 0}'
b'{"latitude": 42.49704, "geonameid": 3039148, "country_code": "AD", "longitude": 1.49334, "name": "Collet de Sant Vicen\xc3\xa7", "population": 0}'
b'{"latitude": 42.47677, "geonameid": 3039149, "country_code": "AD", "longitude": 1.4572, "name": "Sol\xc3\xa0 de Santserra", "population": 0}'
b'{"latitude": 42.53083, "geonameid": 3039150, "country_code": "AD", "longitude": 1.56861, "name": "Sant Rom\xc3\xa0 de Vila", "population": 0}'
b'{"latitude": 42.53907, "geonameid": 3039151, "country_code": "AD", "longitude": 1.5871, "name": "Sant Rom\xc3\xa0 de les Bons", "population": 0}'
b'{"latitude": 42.45309, "geonameid": 3039152, "country_code": "AD", "longitude": 1.49933, "name": "Bosc de Sant Rom\xc3\xa0", "population": 0}'
b'{"latitude": 42.4527, "geonameid": 3039153, "country_code": "AD", "longitude": 1.49807, "name": "Sant Rom\xc3\xa0", "population": 0}'
b'{"latitude": 42.57952, "geonameid": 3039154, "country_code": "AD", "longitude": 1.65362, "name": "El Tarter", "population": 1052}'
b'{"latitude": 42.51094, "geonameid": 3039155, "country_code": "AD", "longitude": 1.56008, "name": "Sant Miquel d\'Engolasters", "population": 0}'
b'{"latitude": 42.45439, "geonameid": 3039156, "country_code": "AD", "longitude": 1.46489, "name": "Sant Miquel de Fontaneda", "population": 0}'
b'{"latitude": 42.58601, "geonameid": 3039157, "country_code": "AD", "longitude": 1.66094, "name": "Sol\xc3\xa0 de Sant Miquel", "population": 0}'
b'{"latitude": 42.58209, "geonameid": 3039158, "country_code": "AD", "longitude": 1.65845, "name": "Roc de Sant Miquel", "population": 0}'
b'{"latitude": 42.47776, "geonameid": 3039159, "country_code": "AD", "longitude": 1.4936, "name": "Drecera de Sant Mart\xc3\xad", "population": 0}'
b'{"latitude": 42.47537, "geonameid": 3039160, "country_code": "AD", "longitude": 1.49683, "name": "Sant Mart\xc3\xad", "population": 0}'
b'{"latitude": 42.47459, "geonameid": 3039161, "country_code": "AD", "longitude": 1.49488, "name": "Sant Mart\xc3\xad", "population": 0}'
b'{"latitude": 42.46247, "geonameid": 3039162, "country_code": "AD", "longitude": 1.48247, "name": "Sant Juli\xc3\xa0 de L\xc3\xb2ria", "population": 9448}'
b'{"latitude": 42.46372, "geonameid": 3039163, "country_code": "AD", "longitude": 1.49129, "name": "Sant Juli\xc3\xa0 de L\xc3\xb2ria", "population": 8022}'
b'{"latitude": 42.56485, "geonameid": 3039164, "country_code": "AD", "longitude": 1.75281, "name": "Riu de Sant Josep", "population": 0}'
b'{"latitude": 42.57901, "geonameid": 3039165, "country_code": "AD", "longitude": 1.70707, "name": "Clot de Sant Josep", "population": 0}'
b'{"latitude": 42.57116, "geonameid": 3039166, "country_code": "AD", "longitude": 1.60761, "name": "Sant Joan de Caselles", "population": 0}'
b'{"latitude": 42.53379, "geonameid": 3039167, "country_code": "AD", "longitude": 1.60619, "name": "Serrat de Sant Jaume", "population": 0}'
b'{"latitude": 42.58068, "geonameid": 3039168, "country_code": "AD", "longitude": 1.63858, "name": "Sant Jaume", "population": 0}'
b'{"latitude": 42.53417, "geonameid": 3039169, "country_code": "AD", "longitude": 1.60528, "name": "Sant Jaume", "population": 0}'
b'{"latitude": 42.44038, "geonameid": 3039170, "country_code": "AD", "longitude": 1.49421, "name": "Sant Esteve", "population": 0}'
b'{"latitude": 42.44186, "geonameid": 3039171, "country_code": "AD", "longitude": 1.45118, "name": "Sant Esteve", "population": 0}'
b'{"latitude": 42.44575, "geonameid": 3039172, "country_code": "AD", "longitude": 1.50285, "name": "Sant Crist\xc3\xb2fol", "population": 0}'
b'{"latitude": 42.5346, "geonameid": 3039173, "country_code": "AD", "longitude": 1.52486, "name": "Sant Crist\xc3\xb2fol", "population": 0}'
b'{"latitude": 42.46971, "geonameid": 3039174, "country_code": "AD", "longitude": 1.50554, "name": "Sol\xc3\xa0 de Sant Cerni", "population": 0}'
b'{"latitude": 42.56667, "geonameid": 3039175, "country_code": "AD", "longitude": 1.59738, "name": "Egl\xc3\xa8sia de Sant Cerni", "population": 0}'
b'{"latitude": 42.46905, "geonameid": 3039176, "country_code": "AD", "longitude": 1.50228, "name": "Sant Cerni", "population": 0}'
b'{"latitude": 42.52713, "geonameid": 3039177, "country_code": "AD", "longitude": 1.52117, "name": "Sant Antoni de la Grella", "population": 0}'
b'{"latitude": 42.52773, "geonameid": 3039178, "country_code": "AD", "longitude": 1.521, "name": "T\xc3\xbanels de Sant Antoni", "population": 0}'
b'{"latitude": 42.52436, "geonameid": 3039179, "country_code": "AD", "longitude": 1.52128, "name": "Pont de Sant Antoni", "population": 0}'
b'{"latitude": 42.56566, "geonameid": 3039180, "country_code": "AD", "longitude": 1.59976, "name": "Pont de Santa Creu", "population": 0}'
b'{"latitude": 42.49454, "geonameid": 3039181, "country_code": "AD", "longitude": 1.49897, "name": "Santa Coloma", "population": 0}'
b'{"latitude": 42.54588, "geonameid": 3039182, "country_code": "AD", "longitude": 1.51957, "name": "Santa Caterina", "population": 0}'
b'{"latitude": 42.49205, "geonameid": 3039183, "country_code": "AD", "longitude": 1.51749, "name": "Cortal del Sansa", "population": 0}'
b'{"latitude": 42.57284, "geonameid": 3039184, "country_code": "AD", "longitude": 1.43574, "name": "Portella de Sanfons", "population": 0}'
b'{"latitude": 42.58707, "geonameid": 3039185, "country_code": "AD", "longitude": 1.42735, "name": "Pic de Sanfons", "population": 0}'
b'{"latitude": 42.53454, "geonameid": 3039186, "country_code": "AD", "longitude": 1.59271, "name": "Roc de la Salve", "population": 0}'
b'{"latitude": 42.45256, "geonameid": 3039187, "country_code": "AD", "longitude": 1.52708, "name": "Bosc de la Salvata", "population": 0}'
b'{"latitude": 42.56683, "geonameid": 3039188, "country_code": "AD", "longitude": 1.53328, "name": "Solana del Saltader", "population": 0}'
b'{"latitude": 42.56926, "geonameid": 3039189, "country_code": "AD", "longitude": 1.47607, "name": "Clot del Saltader", "population": 0}'
b'{"latitude": 42.58651, "geonameid": 3039190, "country_code": "AD", "longitude": 1.59332, "name": "Roc del Salt", "population": 0}'
b'{"latitude": 42.58747, "geonameid": 3039191, "country_code": "AD", "longitude": 1.59385, "name": "Clot del Salt", "population": 0}'
b'{"latitude": 42.63331, "geonameid": 3039192, "country_code": "AD", "longitude": 1.50223, "name": "Rius de les Salses", "population": 0}'
b'{"latitude": 42.61018, "geonameid": 3039193, "country_code": "AD", "longitude": 1.53765, "name": "Pont de les Salines", "population": 0}'
b'{"latitude": 42.61087, "geonameid": 3039194, "country_code": "AD", "longitude": 1.54022, "name": "Costa de les Salines", "population": 0}'
b'{"latitude": 42.60991, "geonameid": 3039195, "country_code": "AD", "longitude": 1.52954, "name": "Bosc de les Salines", "population": 0}'
b'{"latitude": 42.60389, "geonameid": 3039196, "country_code": "AD", "longitude": 1.66216, "name": "Basses de les Salamandres", "population": 0}'
b'{"latitude": 42.55212, "geonameid": 3039197, "country_code": "AD", "longitude": 1.43516, "name": "Costa de la Salamandra", "population": 0}'
b'{"latitude": 42.50371, "geonameid": 3039198, "country_code": "AD", "longitude": 1.48734, "name": "Costa Salamandra", "population": 0}'
b'{"latitude": 42.57144, "geonameid": 3039199, "country_code": "AD", "longitude": 1.47162, "name": "Roca de la Sabina", "population": 0}'
b'{"latitude": 42.44499, "geonameid": 3039200, "country_code": "AD", "longitude": 1.47682, "name": "Cortal del Sabater", "population": 0}'
b'{"latitude": 42.4443, "geonameid": 3039201, "country_code": "AD", "longitude": 1.47967, "name": "Bosc del Sabater", "population": 0}'
b'{"latitude": 42.44537, "geonameid": 3039202, "country_code": "AD", "longitude": 1.48222, "name": "Borda del Sabater", "population": 0}'
b'{"latitude": 42.47635, "geonameid": 3039203, "country_code": "AD", "longitude": 1.47446, "name": "Canal dels Rulls", "population": 0}'
b'{"latitude": 42.58871, "geonameid": 3039204, "country_code": "AD", "longitude": 1.52149, "name": "Canal de Ruixol", "population": 0}'
b'{"latitude": 42.57705, "geonameid": 3039205, "country_code": "AD", "longitude": 1.47981, "name": "Torrent del Ru\xc3\xafder", "population": 0}'
b'{"latitude": 42.58063, "geonameid": 3039206, "country_code": "AD", "longitude": 1.48135, "name": "Roc del Ru\xc3\xafder", "population": 0}'
b'{"latitude": 42.58765, "geonameid": 3039207, "country_code": "AD", "longitude": 1.44952, "name": "Pala del Ruf", "population": 0}'
b'{"latitude": 42.5867, "geonameid": 3039208, "country_code": "AD", "longitude": 1.45048, "name": "Basses del Ruf", "population": 0}'
b'{"latitude": 42.49491, "geonameid": 3039209, "country_code": "AD", "longitude": 1.45848, "name": "Serrat de Rudielles", "population": 0}'
b'{"latitude": 42.48862, "geonameid": 3039210, "country_code": "AD", "longitude": 1.45191, "name": "Canal de Rudielles", "population": 0}'
b'{"latitude": 42.48312, "geonameid": 3039211, "country_code": "AD", "longitude": 1.45005, "name": "Vial de Rubials", "population": 0}'
b'{"latitude": 42.48414, "geonameid": 3039212, "country_code": "AD", "longitude": 1.45363, "name": "Torrent de Rubials", "population": 0}'
b'{"latitude": 42.48401, "geonameid": 3039213, "country_code": "AD", "longitude": 1.44628, "name": "Solana de Rubials", "population": 0}'
b'{"latitude": 42.44286, "geonameid": 3039214, "country_code": "AD", "longitude": 1.51518, "name": "Rua del Terrer Roi", "population": 0}'
b'{"latitude": 42.60024, "geonameid": 3039215, "country_code": "AD", "longitude": 1.52409, "name": "Bosc de Roures", "population": 0}'
b'{"latitude": 42.45078, "geonameid": 3039216, "country_code": "AD", "longitude": 1.4475, "name": "Collet de Roques Negres", "population": 0}'
b'{"latitude": 42.45124, "geonameid": 3039217, "country_code": "AD", "longitude": 1.44594, "name": "Roques Negres", "population": 0}'
b'{"latitude": 42.58121, "geonameid": 3039218, "country_code": "AD", "longitude": 1.59754, "name": "Serrat de Roques Grosses", "population": 0}'
b'{"latitude": 42.49952, "geonameid": 3039219, "country_code": "AD", "longitude": 1.49843, "name": "Canal de Roques Blanques", "population": 0}'
b'{"latitude": 42.5311, "geonameid": 3039220, "country_code": "AD", "longitude": 1.46618, "name": "Fontanal de les Roques", "population": 0}'
b'{"latitude": 42.6438, "geonameid": 3039221, "country_code": "AD", "longitude": 1.55782, "name": "Pleta de les Romes", "population": 0}'
b'{"latitude": 42.54252, "geonameid": 3039222, "country_code": "AD", "longitude": 1.44615, "name": "Font Roja", "population": 0}'
b'{"latitude": 42.47534, "geonameid": 3039223, "country_code": "AD", "longitude": 1.49847, "name": "Font Roja", "population": 0}'
b'{"latitude": 42.60119, "geonameid": 3039224, "country_code": "AD", "longitude": 1.66433, "name": "Bassa Roja", "population": 0}'
b'{"latitude": 42.58134, "geonameid": 3039225, "country_code": "AD", "longitude": 1.47244, "name": "Grau Roig", "population": 0}'
b'{"latitude": 42.57414, "geonameid": 3039226, "country_code": "AD", "longitude": 1.58993, "name": "Borda de Roig", "population": 0}'
b'{"latitude": 42.57051, "geonameid": 3039227, "country_code": "AD", "longitude": 1.45914, "name": "Fonts Roges", "population": 0}'
b'{"latitude": 42.56407, "geonameid": 3039228, "country_code": "AD", "longitude": 1.64446, "name": "Fonts Roges", "population": 0}'
b'{"latitude": 42.58368, "geonameid": 3039229, "country_code": "AD", "longitude": 1.71285, "name": "Canals Roges", "population": 0}'
b'{"latitude": 42.47092, "geonameid": 3039230, "country_code": "AD", "longitude": 1.55955, "name": "Basses Roges", "population": 0}'
b'{"latitude": 42.5482, "geonameid": 3039231, "country_code": "AD", "longitude": 1.42423, "name": "Font Rodona", "population": 0}'
b'{"latitude": 42.64918, "geonameid": 3039232, "country_code": "AD", "longitude": 1.48466, "name": "Costa Rodona", "population": 0}'
b'{"latitude": 42.58166, "geonameid": 3039233, "country_code": "AD", "longitude": 1.44422, "name": "Costa Rodona", "population": 0}'
b'{"latitude": 42.5542, "geonameid": 3039234, "country_code": "AD", "longitude": 1.72321, "name": "Costa Rodona", "population": 0}'
b'{"latitude": 42.44407, "geonameid": 3039235, "country_code": "AD", "longitude": 1.53258, "name": "Bo\xc3\xafga Rodona", "population": 0}'
b'{"latitude": 42.49006, "geonameid": 3039236, "country_code": "AD", "longitude": 1.57324, "name": "Bosc del R\xc3\xb3dol", "population": 0}'
b'{"latitude": 42.57146, "geonameid": 3039237, "country_code": "AD", "longitude": 1.54149, "name": "Tur\xc3\xb3 Rod\xc3\xb3", "population": 0}'
b'{"latitude": 42.55877, "geonameid": 3039238, "country_code": "AD", "longitude": 1.43352, "name": "Roc Rod\xc3\xb3", "population": 0}'
b'{"latitude": 42.56921, "geonameid": 3039239, "country_code": "AD", "longitude": 1.49279, "name": "Roc Rod\xc3\xb3", "population": 0}'
b'{"latitude": 42.54287, "geonameid": 3039240, "country_code": "AD", "longitude": 1.43557, "name": "Pla de Rod\xc3\xb3", "population": 0}'
b'{"latitude": 42.52213, "geonameid": 3039241, "country_code": "AD", "longitude": 1.68115, "name": "Estany Rod\xc3\xb3", "population": 0}'
b'{"latitude": 42.49518, "geonameid": 3039242, "country_code": "AD", "longitude": 1.65469, "name": "Estany Rod\xc3\xb3", "population": 0}'
b'{"latitude": 42.61625, "geonameid": 3039243, "country_code": "AD", "longitude": 1.54478, "name": "Bony Rod\xc3\xb3", "population": 0}'
b'{"latitude": 42.54082, "geonameid": 3039244, "country_code": "AD", "longitude": 1.5801, "name": "Rocs Tous", "population": 0}'
b'{"latitude": 42.54128, "geonameid": 3039245, "country_code": "AD", "longitude": 1.61407, "name": "Rocs Negres", "population": 0}'
b'{"latitude": 42.58879, "geonameid": 3039246, "country_code": "AD", "longitude": 1.48831, "name": "Planell del Roc Gros", "population": 0}'
b'{"latitude": 42.58606, "geonameid": 3039247, "country_code": "AD", "longitude": 1.48585, "name": "Bosc del Roc Gros", "population": 0}'
b'{"latitude": 42.61479, "geonameid": 3039248, "country_code": "AD", "longitude": 1.57912, "name": "Serra del Roc del Rellotge", "population": 0}'
b'{"latitude": 42.59237, "geonameid": 3039249, "country_code": "AD", "longitude": 1.45511, "name": "Font del Roc del Porquer", "population": 0}'
b'{"latitude": 42.51759, "geonameid": 3039250, "country_code": "AD", "longitude": 1.53197, "name": "Canal del Roc de la Grael", "population": 0}'
b'{"latitude": 42.55124, "geonameid": 3039251, "country_code": "AD", "longitude": 1.50757, "name": "Roca Podrida", "population": 0}'
b'{"latitude": 42.58879, "geonameid": 3039252, "country_code": "AD", "longitude": 1.58678, "name": "Costa de Roca Negra", "population": 0}'
b'{"latitude": 42.49634, "geonameid": 3039253, "country_code": "AD", "longitude": 1.45717, "name": "Canal de Rocanegra", "population": 0}'
b'{"latitude": 42.43697, "geonameid": 3039254, "country_code": "AD", "longitude": 1.49762, "name": "Canal de Roca Major", "population": 0}'
b'{"latitude": 42.56664, "geonameid": 3039255, "country_code": "AD", "longitude": 1.70066, "name": "Planell de la Roca Grossa", "population": 0}'
b'{"latitude": 42.56066, "geonameid": 3039256, "country_code": "AD", "longitude": 1.67345, "name": "Planell de Roca Grossa", "population": 0}'
b'{"latitude": 42.46465, "geonameid": 3039257, "country_code": "AD", "longitude": 1.49106, "name": "Canal de Rocafort", "population": 0}'
b'{"latitude": 42.46419, "geonameid": 3039258, "country_code": "AD", "longitude": 1.48672, "name": "Rocafort", "population": 0}'
b'{"latitude": 42.57064, "geonameid": 3039259, "country_code": "AD", "longitude": 1.47456, "name": "Solana de la Roca de la Sabina", "population": 0}'
b'{"latitude": 42.51929, "geonameid": 3039260, "country_code": "AD", "longitude": 1.52398, "name": "Canal de la Roca Blanca", "population": 0}'
b'{"latitude": 42.55689, "geonameid": 3039261, "country_code": "AD", "longitude": 1.61052, "name": "Vial de la Roca", "population": 0}'
b'{"latitude": 42.55818, "geonameid": 3039262, "country_code": "AD", "longitude": 1.61607, "name": "Pala de la Roca", "population": 0}'
b'{"latitude": 42.5514, "geonameid": 3039263, "country_code": "AD", "longitude": 1.45579, "name": "Bosc de la Roca", "population": 0}'
b'{"latitude": 42.53, "geonameid": 3039264, "country_code": "AD", "longitude": 1.52027, "name": "Pont del Riu Montaner", "population": 0}'
b'{"latitude": 42.56535, "geonameid": 3039265, "country_code": "AD", "longitude": 1.60304, "name": "Cam\xc3\xad del Riu del Seig", "population": 0}'
b'{"latitude": 42.56905, "geonameid": 3039266, "country_code": "AD", "longitude": 1.61063, "name": "Riu del Seig", "population": 0}'
b'{"latitude": 42.56117, "geonameid": 3039267, "country_code": "AD", "longitude": 1.69283, "name": "Forat del Riu dels Clots de Massat", "population": 0}'
b'{"latitude": 42.6203, "geonameid": 3039268, "country_code": "AD", "longitude": 1.59057, "name": "Fonts del Riu de les Cebes", "population": 0}'
b'{"latitude": 42.6208, "geonameid": 3039269, "country_code": "AD", "longitude": 1.5871, "name": "Costa del Riu de les Cebes", "population": 0}'
b'{"latitude": 42.62258, "geonameid": 3039270, "country_code": "AD", "longitude": 1.58847, "name": "Collada del Riu de les Cebes", "population": 0}'
b'{"latitude": 42.61744, "geonameid": 3039271, "country_code": "AD", "longitude": 1.58969, "name": "Bony del Riu de les Cebes", "population": 0}'
b'{"latitude": 42.46812, "geonameid": 3039272, "country_code": "AD", "longitude": 1.50541, "name": "Prats del Riu", "population": 0}'
b'{"latitude": 42.5315, "geonameid": 3039273, "country_code": "AD", "longitude": 1.58544, "name": "Canal de Rita", "population": 0}'
b'{"latitude": 42.49159, "geonameid": 3039274, "country_code": "AD", "longitude": 1.54716, "name": "Sol\xc3\xa0 del Riguer", "population": 0}'
b'{"latitude": 42.48885, "geonameid": 3039275, "country_code": "AD", "longitude": 1.54245, "name": "Obaga del Riguer", "population": 0}'
b'{"latitude": 42.53794, "geonameid": 3039276, "country_code": "AD", "longitude": 1.61648, "name": "Bordes de Rigoder", "population": 0}'
b'{"latitude": 42.55492, "geonameid": 3039277, "country_code": "AD", "longitude": 1.54882, "name": "Bosc de les Ribes", "population": 0}'
b'{"latitude": 42.52817, "geonameid": 3039278, "country_code": "AD", "longitude": 1.70602, "name": "Riberal d\xe2\x80\x99Envalira", "population": 0}'
b'{"latitude": 42.43732, "geonameid": 3039279, "country_code": "AD", "longitude": 1.4783, "name": "Canals de Ribera", "population": 0}'
b'{"latitude": 42.57875, "geonameid": 3039280, "country_code": "AD", "longitude": 1.4849, "name": "Ribassot", "population": 0}'
b'{"latitude": 42.57626, "geonameid": 3039281, "country_code": "AD", "longitude": 1.48074, "name": "Torrent de Ribassols", "population": 0}'
b'{"latitude": 42.57798, "geonameid": 3039282, "country_code": "AD", "longitude": 1.47811, "name": "Torrent Ribal", "population": 0}'
b'{"latitude": 42.55522, "geonameid": 3039283, "country_code": "AD", "longitude": 1.65207, "name": "Tosa de Riba Escorjada", "population": 0}'
b'{"latitude": 42.56203, "geonameid": 3039284, "country_code": "AD", "longitude": 1.63508, "name": "Solanelles de Riba Escorjada", "population": 0}'
b'{"latitude": 42.56712, "geonameid": 3039285, "country_code": "AD", "longitude": 1.63987, "name": "Planells de Riba Escorjada", "population": 0}'
b'{"latitude": 42.57117, "geonameid": 3039286, "country_code": "AD", "longitude": 1.642, "name": "Cam\xc3\xad de Riba Escorjada", "population": 0}'
b'{"latitude": 42.55858, "geonameid": 3039287, "country_code": "AD", "longitude": 1.60283, "name": "Cam\xc3\xad de Riba Escorjada", "population": 0}'
b'{"latitude": 42.55967, "geonameid": 3039288, "country_code": "AD", "longitude": 1.64338, "name": "Riba Escorjada", "population": 0}'
b'{"latitude": 42.5564, "geonameid": 3039289, "country_code": "AD", "longitude": 1.58376, "name": "Bosc de Riba", "population": 0}'
b'{"latitude": 42.57647, "geonameid": 3039290, "country_code": "AD", "longitude": 1.52146, "name": "Bosc del Riambert", "population": 0}'
b'{"latitude": 42.61495, "geonameid": 3039291, "country_code": "AD", "longitude": 1.53726, "name": "Riu de Rialb", "population": 0}'
b'{"latitude": 42.63958, "geonameid": 3039292, "country_code": "AD", "longitude": 1.5341, "name": "Portella de Rialb", "population": 0}'
b'{"latitude": 42.64523, "geonameid": 3039293, "country_code": "AD", "longitude": 1.56312, "name": "Basera de Rialb", "population": 0}'
b'{"latitude": 42.64767, "geonameid": 3039294, "country_code": "AD", "longitude": 1.5509, "name": "Rialb", "population": 0}'
b'{"latitude": 42.54246, "geonameid": 3039295, "country_code": "AD", "longitude": 1.60643, "name": "Pala de Rep", "population": 0}'
b'{"latitude": 42.44971, "geonameid": 3039296, "country_code": "AD", "longitude": 1.47358, "name": "Coll del Rep", "population": 0}'
b'{"latitude": 42.54325, "geonameid": 3039297, "country_code": "AD", "longitude": 1.61092, "name": "Cap de Rep", "population": 0}'
b'{"latitude": 42.54767, "geonameid": 3039298, "country_code": "AD", "longitude": 1.5992, "name": "Rep", "population": 0}'
b'{"latitude": 42.61638, "geonameid": 3039299, "country_code": "AD", "longitude": 1.57199, "name": "Roc del Rellotge", "population": 0}'
b'{"latitude": 42.56333, "geonameid": 3039300, "country_code": "AD", "longitude": 1.62611, "name": "Roc del Rellotge", "population": 0}'
b'{"latitude": 42.60175, "geonameid": 3039301, "country_code": "AD", "longitude": 1.68188, "name": "Font de les Re\xc3\xafneres", "population": 0}'
b'{"latitude": 42.48783, "geonameid": 3039302, "country_code": "AD", "longitude": 1.42167, "name": "Solana de la Regal\xc3\xadssia", "population": 0}'
b'{"latitude": 42.55721, "geonameid": 3039303, "country_code": "AD", "longitude": 1.55846, "name": "Obaga de Redort", "population": 0}'
b'{"latitude": 42.55959, "geonameid": 3039304, "country_code": "AD", "longitude": 1.55223, "name": "Redort", "population": 0}'
b'{"latitude": 42.51922, "geonameid": 3039305, "country_code": "AD", "longitude": 1.49863, "name": "Clot de la Rectoria", "population": 0}'
b'{"latitude": 42.58945, "geonameid": 3039306, "country_code": "AD", "longitude": 1.46259, "name": "Serrat del Rec d\xe2\x80\x99Areny", "population": 0}'
b'{"latitude": 42.46492, "geonameid": 3039307, "country_code": "AD", "longitude": 1.52539, "name": "Bosc de R\xc3\xa8bols", "population": 0}'
b'{"latitude": 42.61707, "geonameid": 3039308, "country_code": "AD", "longitude": 1.53638, "name": "Pont de la Rebollissa", "population": 0}'
b'{"latitude": 42.62512, "geonameid": 3039309, "country_code": "AD", "longitude": 1.6278, "name": "Llanesques de les Rebes", "population": 0}'
b'{"latitude": 42.62141, "geonameid": 3039310, "country_code": "AD", "longitude": 1.63071, "name": "Clot de les Rebes", "population": 0}'
b'{"latitude": 42.56396, "geonameid": 3039311, "country_code": "AD", "longitude": 1.74459, "name": "Rebaixant del Mai\xc3\xa0", "population": 0}'
b'{"latitude": 42.58023, "geonameid": 3039312, "country_code": "AD", "longitude": 1.46982, "name": "Canal de la Rata", "population": 0}'
b'{"latitude": 42.62127, "geonameid": 3039313, "country_code": "AD", "longitude": 1.47371, "name": "Port de Rat", "population": 0}'
b'{"latitude": 42.44165, "geonameid": 3039314, "country_code": "AD", "longitude": 1.54299, "name": "Bosc de Rasets", "population": 0}'
b'{"latitude": 42.48265, "geonameid": 3039315, "country_code": "AD", "longitude": 1.58675, "name": "Rasa de Perafita", "population": 0}'
b'{"latitude": 42.46548, "geonameid": 3039316, "country_code": "AD", "longitude": 1.44456, "name": "Costa Rasa", "population": 0}'
b'{"latitude": 42.46072, "geonameid": 3039317, "country_code": "AD", "longitude": 1.53621, "name": "Bosc de la Rasa", "population": 0}'
b'{"latitude": 42.57816, "geonameid": 3039318, "country_code": "AD", "longitude": 1.63948, "name": "Presa de Ransol", "population": 0}'
b'{"latitude": 42.58082, "geonameid": 3039319, "country_code": "AD", "longitude": 1.63251, "name": "Carretera de Ransol", "population": 0}'
b'{"latitude": 42.58137, "geonameid": 3039320, "country_code": "AD", "longitude": 1.63812, "name": "Ransol", "population": 0}'
b'{"latitude": 42.499, "geonameid": 3039321, "country_code": "AD", "longitude": 1.57458, "name": "Roca de R\xc3\xa0mio", "population": 0}'
b'{"latitude": 42.49734, "geonameid": 3039322, "country_code": "AD", "longitude": 1.57401, "name": "R\xc3\xa0mio", "population": 0}'
b'{"latitude": 42.56887, "geonameid": 3039323, "country_code": "AD", "longitude": 1.4818, "name": "Canal del Ramer", "population": 0}'
b'{"latitude": 42.50245, "geonameid": 3039324, "country_code": "AD", "longitude": 1.50757, "name": "Canal de la Ramenada", "population": 0}'
b'{"latitude": 42.54763, "geonameid": 3039325, "country_code": "AD", "longitude": 1.59256, "name": "Cam\xc3\xad Ral", "population": 0}'
b'{"latitude": 42.53785, "geonameid": 3039326, "country_code": "AD", "longitude": 1.5906, "name": "Cam\xc3\xad Ral", "population": 0}'
b'{"latitude": 42.48629, "geonameid": 3039327, "country_code": "AD", "longitude": 1.44949, "name": "Radonella", "population": 0}'
b'{"latitude": 42.5282, "geonameid": 3039328, "country_code": "AD", "longitude": 1.57089, "name": "Radio Andorra", "population": 0}'
b'{"latitude": 42.55774, "geonameid": 3039329, "country_code": "AD", "longitude": 1.58461, "name": "Racons", "population": 0}'
b'{"latitude": 42.46449, "geonameid": 3039330, "country_code": "AD", "longitude": 1.60858, "name": "Pic de la Raconada de la Maiana", "population": 0}'
b'{"latitude": 42.47229, "geonameid": 3039331, "country_code": "AD", "longitude": 1.60896, "name": "Clots de la Raconada de la Maiana", "population": 0}'
b'{"latitude": 42.60201, "geonameid": 3039332, "country_code": "AD", "longitude": 1.45053, "name": "Pic de Racofred", "population": 0}'
b'{"latitude": 42.61791, "geonameid": 3039333, "country_code": "AD", "longitude": 1.66791, "name": "Rac\xc3\xb3 de l\xe2\x80\x99Estany de Cabana Sorda", "population": 0}'
b'{"latitude": 42.62703, "geonameid": 3039334, "country_code": "AD", "longitude": 1.5708, "name": "Pleta del Rac\xc3\xb3", "population": 0}'
b'{"latitude": 42.58225, "geonameid": 3039335, "country_code": "AD", "longitude": 1.4517, "name": "Pleta del Rac\xc3\xb3", "population": 0}'
b'{"latitude": 42.57438, "geonameid": 3039336, "country_code": "AD", "longitude": 1.48712, "name": "Canal del Rac\xc3\xb3", "population": 0}'
b'{"latitude": 42.61919, "geonameid": 3039337, "country_code": "AD", "longitude": 1.49881, "name": "Bassa del Rac\xc3\xb3", "population": 0}'
b'{"latitude": 42.62944, "geonameid": 3039338, "country_code": "AD", "longitude": 1.55699, "name": "Pleta de la Rabassa", "population": 0}'
b'{"latitude": 42.44125, "geonameid": 3039339, "country_code": "AD", "longitude": 1.50146, "name": "Carretera de la Rabassa", "population": 0}'
b'{"latitude": 42.62594, "geonameid": 3039340, "country_code": "AD", "longitude": 1.55252, "name": "Canya de la Rabassa", "population": 0}'
b'{"latitude": 42.43843, "geonameid": 3039341, "country_code": "AD", "longitude": 1.50916, "name": "Bosc de la Rabassa", "population": 0}'
b'{"latitude": 42.58728, "geonameid": 3039342, "country_code": "AD", "longitude": 1.52907, "name": "Solana del Querol", "population": 0}'
b'{"latitude": 42.58903, "geonameid": 3039343, "country_code": "AD", "longitude": 1.66775, "name": "Riu del Querol", "population": 0}'
b'{"latitude": 42.58598, "geonameid": 3039344, "country_code": "AD", "longitude": 1.52234, "name": "Riu del Querol", "population": 0}'
b'{"latitude": 42.59565, "geonameid": 3039345, "country_code": "AD", "longitude": 1.65851, "name": "Pleta del Querol", "population": 0}'
b'{"latitude": 42.59981, "geonameid": 3039346, "country_code": "AD", "longitude": 1.6597, "name": "Estany\xc3\xb3 del Querol", "population": 0}'
b'{"latitude": 42.52608, "geonameid": 3039347, "country_code": "AD", "longitude": 1.51856, "name": "Serrat de la Quera", "population": 0}'
b'{"latitude": 42.45374, "geonameid": 3039348, "country_code": "AD", "longitude": 1.46677, "name": "Canal Gran de la Quera", "population": 0}'
b'{"latitude": 42.52679, "geonameid": 3039349, "country_code": "AD", "longitude": 1.5179, "name": "Bosc de la Quera", "population": 0}'
b'{"latitude": 42.62409, "geonameid": 3039350, "country_code": "AD", "longitude": 1.55442, "name": "Roc del Quer", "population": 0}'
b'{"latitude": 42.5496, "geonameid": 3039351, "country_code": "AD", "longitude": 1.51454, "name": "Roc del Quer", "population": 0}'
b'{"latitude": 42.57692, "geonameid": 3039352, "country_code": "AD", "longitude": 1.48272, "name": "Roc del Quer", "population": 0}'
b'{"latitude": 42.5283, "geonameid": 3039353, "country_code": "AD", "longitude": 1.60242, "name": "Roc del Quer", "population": 0}'
b'{"latitude": 42.5661, "geonameid": 3039354, "country_code": "AD", "longitude": 1.59185, "name": "Roc del Quer", "population": 0}'
b'{"latitude": 42.48008, "geonameid": 3039355, "country_code": "AD", "longitude": 1.46912, "name": "Roc de Quer", "population": 0}'
b'{"latitude": 42.62387, "geonameid": 3039356, "country_code": "AD", "longitude": 1.55877, "name": "Planell del Quer", "population": 0}'
b'{"latitude": 42.62652, "geonameid": 3039357, "country_code": "AD", "longitude": 1.5562, "name": "Canal del Quer", "population": 0}'
b'{"latitude": 42.52851, "geonameid": 3039358, "country_code": "AD", "longitude": 1.60146, "name": "Canal del Quer", "population": 0}'
b'{"latitude": 42.52948, "geonameid": 3039359, "country_code": "AD", "longitude": 1.60282, "name": "Bosc del Quer", "population": 0}'
b'{"latitude": 42.47568, "geonameid": 3039360, "country_code": "AD", "longitude": 1.51985, "name": "Sol\xc3\xa0 del Quart de Nagol", "population": 0}'
b'{"latitude": 42.47248, "geonameid": 3039361, "country_code": "AD", "longitude": 1.47539, "name": "Collet Purgat", "population": 0}'
b'{"latitude": 42.62258, "geonameid": 3039363, "country_code": "AD", "longitude": 1.54489, "name": "Pont de Puntal", "population": 0}'
b'{"latitude": 42.62599, "geonameid": 3039364, "country_code": "AD", "longitude": 1.54425, "name": "Bosc de Puntal", "population": 0}'
b'{"latitude": 42.62472, "geonameid": 3039365, "country_code": "AD", "longitude": 1.54669, "name": "Puntal", "population": 0}'
b'{"latitude": 42.48385, "geonameid": 3039366, "country_code": "AD", "longitude": 1.48911, "name": "Vial dels Pujols", "population": 0}'
b'{"latitude": 42.48185, "geonameid": 3039367, "country_code": "AD", "longitude": 1.48395, "name": "Tarteres dels Pujols", "population": 0}'
b'{"latitude": 42.47329, "geonameid": 3039368, "country_code": "AD", "longitude": 1.50108, "name": "Roc del Pujol", "population": 0}'
b'{"latitude": 42.45127, "geonameid": 3039369, "country_code": "AD", "longitude": 1.50732, "name": "Pujant de Donges", "population": 0}'
b'{"latitude": 42.56265, "geonameid": 3039371, "country_code": "AD", "longitude": 1.59776, "name": "Borda del Puigcernal", "population": 0}'
b'{"latitude": 42.45931, "geonameid": 3039372, "country_code": "AD", "longitude": 1.48756, "name": "Pui d\xe2\x80\x99Olivesa", "population": 0}'
b'{"latitude": 42.5276, "geonameid": 3039373, "country_code": "AD", "longitude": 1.57105, "name": "Pui d\xe2\x80\x99Encamp", "population": 0}'
b'{"latitude": 42.63721, "geonameid": 3039374, "country_code": "AD", "longitude": 1.49019, "name": "Estany Primer", "population": 0}'
b'{"latitude": 42.61033, "geonameid": 3039375, "country_code": "AD", "longitude": 1.71783, "name": "Estany Primer", "population": 0}'
b'{"latitude": 42.52509, "geonameid": 3039376, "country_code": "AD", "longitude": 1.68853, "name": "Estany Primer", "population": 0}'
b'{"latitude": 42.57737, "geonameid": 3039377, "country_code": "AD", "longitude": 1.63188, "name": "Canal de la Presa", "population": 0}'
b'{"latitude": 42.47482, "geonameid": 3039378, "country_code": "AD", "longitude": 1.48586, "name": "Canal de la Premsa", "population": 0}'
b'{"latitude": 42.57239, "geonameid": 3039379, "country_code": "AD", "longitude": 1.48569, "name": "Canal Pregona", "population": 0}'
b'{"latitude": 42.54392, "geonameid": 3039380, "country_code": "AD", "longitude": 1.50449, "name": "Canal Pregona", "population": 0}'
b'{"latitude": 42.54684, "geonameid": 3039381, "country_code": "AD", "longitude": 1.59127, "name": "Torrent Preg\xc3\xb3", "population": 0}'
b'{"latitude": 42.52555, "geonameid": 3039382, "country_code": "AD", "longitude": 1.47568, "name": "Bosc dels Prats Sobirans", "population": 0}'
b'{"latitude": 42.5855, "geonameid": 3039383, "country_code": "AD", "longitude": 1.48386, "name": "Planells dels Prats Nous", "population": 0}'
b'{"latitude": 42.58447, "geonameid": 3039384, "country_code": "AD", "longitude": 1.48453, "name": "Bordes dels Prats Nous", "population": 0}'
b'{"latitude": 42.56017, "geonameid": 3039385, "country_code": "AD", "longitude": 1.59108, "name": "Riu de Prats", "population": 0}'
b'{"latitude": 42.56003, "geonameid": 3039386, "country_code": "AD", "longitude": 1.59396, "name": "Prats", "population": 0}'
b'{"latitude": 42.48367, "geonameid": 3039387, "country_code": "AD", "longitude": 1.55339, "name": "Solana de Prat Primer", "population": 0}'
b'{"latitude": 42.48331, "geonameid": 3039388, "country_code": "AD", "longitude": 1.54968, "name": "Planell de Prat Primer", "population": 0}'
b'{"latitude": 42.48165, "geonameid": 3039389, "country_code": "AD", "longitude": 1.54724, "name": "Obaga de Prat Primer", "population": 0}'
b'{"latitude": 42.47537, "geonameid": 3039390, "country_code": "AD", "longitude": 1.55223, "name": "Font de Prat Primer", "population": 0}'
b'{"latitude": 42.47213, "geonameid": 3039391, "country_code": "AD", "longitude": 1.55795, "name": "Collada de Prat Primer", "population": 0}'
b'{"latitude": 42.47834, "geonameid": 3039392, "country_code": "AD", "longitude": 1.55326, "name": "Clots de Prat Primer", "population": 0}'
b'{"latitude": 42.48233, "geonameid": 3039393, "country_code": "AD", "longitude": 1.54981, "name": "Prat Primer", "population": 0}'
b'{"latitude": 42.4672, "geonameid": 3039394, "country_code": "AD", "longitude": 1.44163, "name": "Collada de Prat Porceller", "population": 0}'
b'{"latitude": 42.57779, "geonameid": 3039395, "country_code": "AD", "longitude": 1.58582, "name": "Font del Prat de Roca", "population": 0}'
b'{"latitude": 42.5708, "geonameid": 3039396, "country_code": "AD", "longitude": 1.59126, "name": "Font del Prat dels Pollins", "population": 0}'
b'{"latitude": 42.6133, "geonameid": 3039397, "country_code": "AD", "longitude": 1.63098, "name": "Basers del Prat del Quart", "population": 0}'
b'{"latitude": 42.57591, "geonameid": 3039398, "country_code": "AD", "longitude": 1.58712, "name": "Font del Prat del Gep", "population": 0}'
b'{"latitude": 42.53199, "geonameid": 3039399, "country_code": "AD", "longitude": 1.5721, "name": "Torrent del Prat del Gaspar", "population": 0}'
b'{"latitude": 42.53853, "geonameid": 3039400, "country_code": "AD", "longitude": 1.46661, "name": "Bosc del Prat de l\xe2\x80\x99Estel", "population": 0}'
b'{"latitude": 42.58058, "geonameid": 3039401, "country_code": "AD", "longitude": 1.64828, "name": "Riu del Prat del Comellar", "population": 0}'
b'{"latitude": 42.57626, "geonameid": 3039402, "country_code": "AD", "longitude": 1.47104, "name": "Solana del Prat del Bosc", "population": 0}'
b'{"latitude": 42.54289, "geonameid": 3039403, "country_code": "AD", "longitude": 1.48072, "name": "Riu del Prat del Bosc", "population": 0}'
b'{"latitude": 42.53966, "geonameid": 3039404, "country_code": "AD", "longitude": 1.47108, "name": "Pont del Prat del Bosc", "population": 0}'
b'{"latitude": 42.53597, "geonameid": 3039405, "country_code": "AD", "longitude": 1.46995, "name": "Bosc del Prat del Bosc", "population": 0}'
b'{"latitude": 42.4853, "geonameid": 3039406, "country_code": "AD", "longitude": 1.45137, "name": "Obagues del Prat de la Posella", "population": 0}'
b'{"latitude": 42.48759, "geonameid": 3039407, "country_code": "AD", "longitude": 1.4521, "name": "Basera del Prat de la Farga", "population": 0}'
b'{"latitude": 42.60307, "geonameid": 3039408, "country_code": "AD", "longitude": 1.63132, "name": "Basers del Prat de la Creu", "population": 0}'
b'{"latitude": 42.48796, "geonameid": 3039409, "country_code": "AD", "longitude": 1.44994, "name": "Obaga dels Pradets", "population": 0}'
b'{"latitude": 42.55231, "geonameid": 3039410, "country_code": "AD", "longitude": 1.62614, "name": "Roc dels Pous", "population": 0}'
b'{"latitude": 42.55656, "geonameid": 3039411, "country_code": "AD", "longitude": 1.49076, "name": "Bosc dels Pous", "population": 0}'
b'{"latitude": 42.55401, "geonameid": 3039412, "country_code": "AD", "longitude": 1.51422, "name": "Serrat del Pouet", "population": 0}'
b'{"latitude": 42.57279, "geonameid": 3039413, "country_code": "AD", "longitude": 1.53702, "name": "Canal del Pouet", "population": 0}'
b'{"latitude": 42.58243, "geonameid": 3039414, "country_code": "AD", "longitude": 1.59081, "name": "Costa del Pou", "population": 0}'
b'{"latitude": 42.54128, "geonameid": 3039415, "country_code": "AD", "longitude": 1.45091, "name": "Bosc de les Poselletes", "population": 0}'
b'{"latitude": 42.58484, "geonameid": 3039416, "country_code": "AD", "longitude": 1.47764, "name": "Bony de la Posella", "population": 0}'
b'{"latitude": 42.57602, "geonameid": 3039417, "country_code": "AD", "longitude": 1.48744, "name": "Posada dels Pastors", "population": 0}'
b'{"latitude": 42.46481, "geonameid": 3039418, "country_code": "AD", "longitude": 1.44696, "name": "Font de la Posada", "population": 0}'
b'{"latitude": 42.55568, "geonameid": 3039419, "country_code": "AD", "longitude": 1.6752, "name": "Serrat de la Posa", "population": 0}'
b'{"latitude": 42.65233, "geonameid": 3039420, "country_code": "AD", "longitude": 1.5624, "name": "Tur\xc3\xb3 del Port Vell", "population": 0}'
b'{"latitude": 42.57205, "geonameid": 3039421, "country_code": "AD", "longitude": 1.44341, "name": "Pic del Port Vell", "population": 0}'
b'{"latitude": 42.56823, "geonameid": 3039422, "country_code": "AD", "longitude": 1.45008, "name": "Canal del Port Vell", "population": 0}'
b'{"latitude": 42.46279, "geonameid": 3039423, "country_code": "AD", "longitude": 1.56575, "name": "Clot de Port Negre", "population": 0}'
b'{"latitude": 42.48037, "geonameid": 3039424, "country_code": "AD", "longitude": 1.49438, "name": "Basers de les Portes", "population": 0}'
b'{"latitude": 42.47525, "geonameid": 3039425, "country_code": "AD", "longitude": 1.6504, "name": "Portella de la Portelleta", "population": 0}'
b'{"latitude": 42.46855, "geonameid": 3039426, "country_code": "AD", "longitude": 1.65882, "name": "Tossa Plana de Lles", "population": 0}'
b'{"latitude": 42.47496, "geonameid": 3039427, "country_code": "AD", "longitude": 1.65644, "name": "Font de la Portelleta", "population": 0}'
b'{"latitude": 42.47242, "geonameid": 3039428, "country_code": "AD", "longitude": 1.66211, "name": "Collada de la Portelleta", "population": 0}'
b'{"latitude": 42.61047, "geonameid": 3039429, "country_code": "AD", "longitude": 1.63773, "name": "Riu de les Portelles", "population": 0}'
b'{"latitude": 42.47275, "geonameid": 3039430, "country_code": "AD", "longitude": 1.64453, "name": "Clots de la Portella de Setut", "population": 0}'
b'{"latitude": 42.57144, "geonameid": 3039431, "country_code": "AD", "longitude": 1.72112, "name": "Pleta de la Portella", "population": 0}'
b'{"latitude": 42.47399, "geonameid": 3039432, "country_code": "AD", "longitude": 1.64028, "name": "Collada de la Portella", "population": 0}'
b'{"latitude": 42.59367, "geonameid": 3039433, "country_code": "AD", "longitude": 1.46047, "name": "Riu del Port Dret", "population": 0}'
b'{"latitude": 42.60273, "geonameid": 3039434, "country_code": "AD", "longitude": 1.45965, "name": "Estany del Port Dret", "population": 0}'
b'{"latitude": 42.57726, "geonameid": 3039435, "country_code": "AD", "longitude": 1.70005, "name": "Costa del Port Dret", "population": 0}'
b'{"latitude": 42.57581, "geonameid": 3039436, "country_code": "AD", "longitude": 1.6921, "name": "Clots del Port Dret", "population": 0}'
b'{"latitude": 42.57838, "geonameid": 3039437, "country_code": "AD", "longitude": 1.6655, "name": "Cam\xc3\xad del Port Dret", "population": 0}'
b'{"latitude": 42.46782, "geonameid": 3039439, "country_code": "AD", "longitude": 1.63909, "name": "Cam\xc3\xad del Port de Setut", "population": 0}'
b'{"latitude": 42.62133, "geonameid": 3039440, "country_code": "AD", "longitude": 1.4783, "name": "Basses del Port de Rat", "population": 0}'
b'{"latitude": 42.54542, "geonameid": 3039441, "country_code": "AD", "longitude": 1.42199, "name": "Font del Port de Cab\xc3\xbas", "population": 0}'
b'{"latitude": 42.56656, "geonameid": 3039442, "country_code": "AD", "longitude": 1.44682, "name": "Planades del Port", "population": 0}'
b'{"latitude": 42.5644, "geonameid": 3039443, "country_code": "AD", "longitude": 1.44451, "name": "Costa del Port", "population": 0}'
b'{"latitude": 42.54178, "geonameid": 3039444, "country_code": "AD", "longitude": 1.71481, "name": "Costa del Port", "population": 0}'
b'{"latitude": 42.4696, "geonameid": 3039445, "country_code": "AD", "longitude": 1.58839, "name": "Clots del Port", "population": 0}'
b'{"latitude": 42.48831, "geonameid": 3039446, "country_code": "AD", "longitude": 1.65472, "name": "Clot del Port", "population": 0}'
b'{"latitude": 42.5681, "geonameid": 3039447, "country_code": "AD", "longitude": 1.44997, "name": "Canal del Port", "population": 0}'
b'{"latitude": 42.47639, "geonameid": 3039448, "country_code": "AD", "longitude": 1.58502, "name": "Cam\xc3\xad del Port", "population": 0}'
b'{"latitude": 42.59128, "geonameid": 3039449, "country_code": "AD", "longitude": 1.45625, "name": "Roc del Porquer", "population": 0}'
b'{"latitude": 42.47634, "geonameid": 3039450, "country_code": "AD", "longitude": 1.49225, "name": "Oratori del Pont d\xe2\x80\x99Aixovall", "population": 0}'
b'{"latitude": 42.49813, "geonameid": 3039451, "country_code": "AD", "longitude": 1.55223, "name": "Canal del Pont", "population": 0}'
b'{"latitude": 42.57642, "geonameid": 3039452, "country_code": "AD", "longitude": 1.48026, "name": "Riu Poll\xc3\xb3s", "population": 0}'
b'{"latitude": 42.53428, "geonameid": 3039453, "country_code": "AD", "longitude": 1.50692, "name": "Bosc de la Pollentia", "population": 0}'
b'{"latitude": 42.61563, "geonameid": 3039454, "country_code": "AD", "longitude": 1.53439, "name": "Roc del Poll", "population": 0}'
b'{"latitude": 42.45464, "geonameid": 3039455, "country_code": "AD", "longitude": 1.49839, "name": "Roc de Podo\xc3\xafna", "population": 0}'
b'{"latitude": 42.49671, "geonameid": 3039456, "country_code": "AD", "longitude": 1.58488, "name": "Canal del Pletiu", "population": 0}'
b'{"latitude": 42.48898, "geonameid": 3039457, "country_code": "AD", "longitude": 1.42836, "name": "Serrat de les Pletes", "population": 0}'
b'{"latitude": 42.6022, "geonameid": 3039458, "country_code": "AD", "longitude": 1.55262, "name": "Serrat de la Pleta Vella", "population": 0}'
b'{"latitude": 42.63053, "geonameid": 3039459, "country_code": "AD", "longitude": 1.51373, "name": "Canal de Pleta Mosquera", "population": 0}'
b'{"latitude": 42.59724, "geonameid": 3039460, "country_code": "AD", "longitude": 1.6377, "name": "Canal de la Pleta dels Llacs", "population": 0}'
b'{"latitude": 42.54463, "geonameid": 3039461, "country_code": "AD", "longitude": 1.62608, "name": "Solana de la Pleta del Perro", "population": 0}'
b'{"latitude": 42.61285, "geonameid": 3039462, "country_code": "AD", "longitude": 1.56177, "name": "Canals de la Pleta del Llomar", "population": 0}'
b'{"latitude": 42.62168, "geonameid": 3039463, "country_code": "AD", "longitude": 1.63325, "name": "Bony de la Pleta de Jan", "population": 0}'
b'{"latitude": 42.59192, "geonameid": 3039464, "country_code": "AD", "longitude": 1.46039, "name": "Roc de la Pleta", "population": 0}'
b'{"latitude": 42.59311, "geonameid": 3039465, "country_code": "AD", "longitude": 1.4588, "name": "Costa de la Pleta", "population": 0}'
b'{"latitude": 42.55188, "geonameid": 3039466, "country_code": "AD", "longitude": 1.4437, "name": "Bosc de la Pleta", "population": 0}'
b'{"latitude": 42.57226, "geonameid": 3039467, "country_code": "AD", "longitude": 1.72051, "name": "Barraca de la Pleta", "population": 0}'
b'{"latitude": 42.58474, "geonameid": 3039468, "country_code": "AD", "longitude": 1.61547, "name": "Cam\xc3\xad dels Plans", "population": 0}'
b'{"latitude": 42.54272, "geonameid": 3039469, "country_code": "AD", "longitude": 1.51091, "name": "Cam\xc3\xad dels Plans", "population": 0}'
b'{"latitude": 42.58529, "geonameid": 3039470, "country_code": "AD", "longitude": 1.62801, "name": "Bosc dels Plans", "population": 0}'
b'{"latitude": 42.5388, "geonameid": 3039471, "country_code": "AD", "longitude": 1.51414, "name": "Bordes dels Plans", "population": 0}'
b'{"latitude": 42.48847, "geonameid": 3039472, "country_code": "AD", "longitude": 1.41656, "name": "Obaga dels Plannels de la Regal\xc3\xadssia", "population": 0}'
b'{"latitude": 42.58837, "geonameid": 3039473, "country_code": "AD", "longitude": 1.52915, "name": "Planes de Fels", "population": 0}'
b'{"latitude": 42.57533, "geonameid": 3039474, "country_code": "AD", "longitude": 1.53622, "name": "Solana de les Planes", "population": 0}'
b'{"latitude": 42.63268, "geonameid": 3039475, "country_code": "AD", "longitude": 1.49923, "name": "Riu de les Planes", "population": 0}'
b'{"latitude": 42.63802, "geonameid": 3039476, "country_code": "AD", "longitude": 1.50503, "name": "Pleta de les Planes", "population": 0}'
b'{"latitude": 42.6457, "geonameid": 3039477, "country_code": "AD", "longitude": 1.49929, "name": "Pic de l\' Albeille", "population": 0}'
b'{"latitude": 42.56142, "geonameid": 3039478, "country_code": "AD", "longitude": 1.54925, "name": "Les Planes", "population": 0}'
b'{"latitude": 42.5695, "geonameid": 3039479, "country_code": "AD", "longitude": 1.52628, "name": "Collet de les Planes", "population": 0}'
b'{"latitude": 42.64205, "geonameid": 3039480, "country_code": "AD", "longitude": 1.49446, "name": "Collada de les Planes", "population": 0}'
b'{"latitude": 42.52303, "geonameid": 3039481, "country_code": "AD", "longitude": 1.60934, "name": "Bosc de les Planes", "population": 0}'
b'{"latitude": 42.54357, "geonameid": 3039482, "country_code": "AD", "longitude": 1.52038, "name": "Bony de les Planes", "population": 0}'
b'{"latitude": 42.52932, "geonameid": 3039483, "country_code": "AD", "longitude": 1.53013, "name": "Serrat dels Planells Grans", "population": 0}'
b'{"latitude": 42.64523, "geonameid": 3039484, "country_code": "AD", "longitude": 1.55612, "name": "Cabana dels Planells de Rialb", "population": 0}'
b'{"latitude": 42.64581, "geonameid": 3039485, "country_code": "AD", "longitude": 1.55151, "name": "Planells de Rialb", "population": 0}'
b'{"latitude": 42.60607, "geonameid": 3039486, "country_code": "AD", "longitude": 1.63868, "name": "Riu dels Planells de Caraup", "population": 0}'
b'{"latitude": 42.62729, "geonameid": 3039487, "country_code": "AD", "longitude": 1.49428, "name": "Planells d\xe2\x80\x99Arcal\xc3\xads", "population": 0}'
b'{"latitude": 42.56733, "geonameid": 3039488, "country_code": "AD", "longitude": 1.51685, "name": "Serrat del Planell Lluent", "population": 0}'
b'{"latitude": 42.63333, "geonameid": 3039489, "country_code": "AD", "longitude": 1.55, "name": "Bony del Planell Gran", "population": 0}'
b'{"latitude": 42.56413, "geonameid": 3039490, "country_code": "AD", "longitude": 1.68923, "name": "Bosc de Planavilla", "population": 0}'
b'{"latitude": 42.56321, "geonameid": 3039491, "country_code": "AD", "longitude": 1.68796, "name": "Planavilla", "population": 0}'
b'{"latitude": 42.55595, "geonameid": 3039492, "country_code": "AD", "longitude": 1.50304, "name": "Bosc de la Planassa", "population": 0}'
b'{"latitude": 42.54537, "geonameid": 3039493, "country_code": "AD", "longitude": 1.57216, "name": "Bosc de Plana en Blanca", "population": 0}'
b'{"latitude": 42.58561, "geonameid": 3039494, "country_code": "AD", "longitude": 1.48903, "name": "Tarteres de Plana de Gral", "population": 0}'
b'{"latitude": 42.47587, "geonameid": 3039495, "country_code": "AD", "longitude": 1.59868, "name": "Tosa Plana", "population": 0}'
b'{"latitude": 42.53156, "geonameid": 3039496, "country_code": "AD", "longitude": 1.59115, "name": "Torrent de la Plana", "population": 0}'
b'{"latitude": 42.58241, "geonameid": 3039497, "country_code": "AD", "longitude": 1.60201, "name": "Serra Plana", "population": 0}'
b'{"latitude": 42.55991, "geonameid": 3039498, "country_code": "AD", "longitude": 1.47873, "name": "Serra Plana", "population": 0}'
b'{"latitude": 42.48201, "geonameid": 3039499, "country_code": "AD", "longitude": 1.43218, "name": "Sierra Plana", "population": 0}'
b'{"latitude": 42.49322, "geonameid": 3039500, "country_code": "AD", "longitude": 1.53959, "name": "Cortal de la Plana", "population": 0}'
b'{"latitude": 42.45737, "geonameid": 3039501, "country_code": "AD", "longitude": 1.51319, "name": "Coll de la Plana", "population": 0}'
b'{"latitude": 42.4975, "geonameid": 3039502, "country_code": "AD", "longitude": 1.53026, "name": "Cam\xc3\xad de la Plana", "population": 0}'
b'{"latitude": 42.49556, "geonameid": 3039503, "country_code": "AD", "longitude": 1.5347, "name": "Bosquet de la Plana", "population": 0}'
b'{"latitude": 42.5429, "geonameid": 3039504, "country_code": "AD", "longitude": 1.55557, "name": "Bosc de la Plana", "population": 0}'
b'{"latitude": 42.53156, "geonameid": 3039505, "country_code": "AD", "longitude": 1.58964, "name": "Bordes de la Plana", "population": 0}'
b'{"latitude": 42.54311, "geonameid": 3039506, "country_code": "AD", "longitude": 1.55196, "name": "Borda de la Plana", "population": 0}'
b'{"latitude": 42.5419, "geonameid": 3039507, "country_code": "AD", "longitude": 1.55366, "name": "Barranc de la Plana", "population": 0}'
b'{"latitude": 42.53349, "geonameid": 3039508, "country_code": "AD", "longitude": 1.53325, "name": "Serrat del Pla Morell", "population": 0}'
b'{"latitude": 42.52687, "geonameid": 3039509, "country_code": "AD", "longitude": 1.56739, "name": "Torrent de Plamanera", "population": 0}'
b'{"latitude": 42.54166, "geonameid": 3039510, "country_code": "AD", "longitude": 1.43056, "name": "Bosc del Pla de Rod\xc3\xb3", "population": 0}'
b'{"latitude": 42.52884, "geonameid": 3039511, "country_code": "AD", "longitude": 1.48301, "name": "Bosc del Pla de Miretes", "population": 0}'
b'{"latitude": 42.4878, "geonameid": 3039512, "country_code": "AD", "longitude": 1.63409, "name": "Pic del Pla de l\xe2\x80\x99Ingla", "population": 0}'
b'{"latitude": 42.48537, "geonameid": 3039513, "country_code": "AD", "longitude": 1.63328, "name": "Pla de l\xe2\x80\x99Ingla", "population": 0}'
b'{"latitude": 42.58291, "geonameid": 3039514, "country_code": "AD", "longitude": 1.46502, "name": "Riu del Pla de l\xe2\x80\x99Estany", "population": 0}'
b'{"latitude": 42.59231, "geonameid": 3039515, "country_code": "AD", "longitude": 1.45975, "name": "Pleta del Pla de l\xe2\x80\x99Estany", "population": 0}'
b'{"latitude": 42.60593, "geonameid": 3039516, "country_code": "AD", "longitude": 1.46269, "name": "Pic des Bareytes", "population": 0}'
b'{"latitude": 42.59425, "geonameid": 3039517, "country_code": "AD", "longitude": 1.45909, "name": "Estret del Pla de l\xe2\x80\x99Estany", "population": 0}'
b'{"latitude": 42.59491, "geonameid": 3039518, "country_code": "AD", "longitude": 1.44823, "name": "Pla de l\xe2\x80\x99Estany", "population": 0}'
b'{"latitude": 42.55354, "geonameid": 3039519, "country_code": "AD", "longitude": 1.67946, "name": "Cam\xc3\xad del Pla de les Pedres", "population": 0}'
b'{"latitude": 42.54894, "geonameid": 3039520, "country_code": "AD", "longitude": 1.60827, "name": "Cam\xc3\xad del Pla del Bosc", "population": 0}'
b'{"latitude": 42.53053, "geonameid": 3039521, "country_code": "AD", "longitude": 1.47154, "name": "Bosc del Pla de la Cot", "population": 0}'
b'{"latitude": 42.55231, "geonameid": 3039522, "country_code": "AD", "longitude": 1.46336, "name": "Grau de les Places", "population": 0}'
b'{"latitude": 42.58834, "geonameid": 3039523, "country_code": "AD", "longitude": 1.62962, "name": "Pleta de Pixolell", "population": 0}'
